$GPRMC,221320,A,2500.2582,N,12117.1898,E,8.4,350.5,141123,,*57
$GPGGA,221320,2500.2582,N,12117.1898,E,1,08,3.5,10.0,M,0.0,M,,*0C
$GPRMC,221321,A,2500.2644,N,12117.1845,E,10.4,350.5,141123,,*66
$GPGGA,221321,2500.2644,N,12117.1845,E,1,08,3.5,10.0,M,0.0,M,,*04
$GPRMC,221322,A,2500.2591,N,12117.1756,E,12.2,350.5,141123,,*67
$GPGGA,221322,2500.2591,N,12117.1756,E,1,08,3.5,10.0,M,0.0,M,,*01
$GPRMC,221323,A,2500.2608,N,12117.1791,E,14.5,350.5,141123,,*6F
$GPGGA,221323,2500.2608,N,12117.1791,E,1,08,3.5,10.0,M,0.0,M,,*08
$GPRMC,221324,A,2500.2825,N,12117.1786,E,14.3,350.5,141123,,*69
$GPGGA,221324,2500.2825,N,12117.1786,E,1,08,3.5,10.0,M,0.0,M,,*08
$GPRMC,221325,A,2500.2906,N,12117.1716,E,13.7,350.5,141123,,*62
$GPGGA,221325,2500.2906,N,12117.1716,E,1,08,3.5,10.0,M,0.0,M,,*00
$GPRMC,221326,A,2500.2849,N,12117.1775,E,10.8,350.5,141123,,*62
$GPGGA,221326,2500.2849,N,12117.1775,E,1,08,3.5,10.0,M,0.0,M,,*0C
$GPRMC,221327,A,2500.2846,N,12117.1791,E,13.1,350.5,141123,,*6C
$GPGGA,221327,2500.2846,N,12117.1791,E,1,08,3.5,10.0,M,0.0,M,,*08
$GPRMC,221328,A,2500.2875,N,12117.1766,E,15.5,350.5,141123,,*69
$GPGGA,221328,2500.2875,N,12117.1766,E,1,08,3.5,10.0,M,0.0,M,,*0F
$GPRMC,221329,A,2500.2912,N,12117.1734,E,12.5,350.5,141123,,*68
$GPGGA,221329,2500.2912,N,12117.1734,E,1,08,3.5,10.0,M,0.0,M,,*09
$GPRMC,221330,A,2500.2937,N,12117.1842,E,14.9,350.5,141123,,*63
$GPGGA,221330,2500.2937,N,12117.1842,E,1,08,3.5,10.0,M,0.0,M,,*08
$GPRMC,221331,A,2500.2912,N,12117.1707,E,14.3,350.5,141123,,*61
$GPGGA,221331,2500.2912,N,12117.1707,E,1,08,3.5,10.0,M,0.0,M,,*00
$GPRMC,221332,A,2500.2847,N,12117.1727,E,12.8,350.5,141123,,*6C
$GPGGA,221332,2500.2847,N,12117.1727,E,1,08,3.5,10.0,M,0.0,M,,*00
$GPRMC,221333,A,2500.2834,N,12117.1721,E,14.3,350.5,141123,,*62
$GPGGA,221333,2500.2834,N,12117.1721,E,1,08,3.5,10.0,M,0.0,M,,*03
$GPRMC,221334,A,2500.2927,N,12117.1698,E,10.8,350.5,141123,,*6A
$GPGGA,221334,2500.2927,N,12117.1698,E,1,08,3.5,10.0,M,0.0,M,,*04
$GPRMC,221335,A,2500.3031,N,12117.1709,E,13.1,350.5,141123,,*67
$GPGGA,221335,2500.3031,N,12117.1709,E,1,08,3.5,10.0,M,0.0,M,,*03
$GPRMC,221336,A,2500.2922,N,12117.1633,E,14.9,350.5,141123,,*69
$GPGGA,221336,2500.2922,N,12117.1633,E,1,08,3.5,10.0,M,0.0,M,,*02
$GPRMC,221337,A,2500.3012,N,12117.1663,E,16.8,350.5,141123,,*65
$GPGGA,221337,2500.3012,N,12117.1663,E,1,08,3.5,10.0,M,0.0,M,,*0D
$GPRMC,221338,A,2500.3077,N,12117.1700,E,15.3,350.5,141123,,*65
$GPGGA,221338,2500.3077,N,12117.1700,E,1,08,3.5,10.0,M,0.0,M,,*05
$GPRMC,221339,A,2500.3145,N,12117.1560,E,17.7,350.5,141123,,*66
$GPGGA,221339,2500.3145,N,12117.1560,E,1,08,3.5,10.0,M,0.0,M,,*00
$GPRMC,221340,A,2500.3192,N,12117.1682,E,14.2,350.5,141123,,*6B
$GPGGA,221340,2500.3192,N,12117.1682,E,1,08,3.5,10.0,M,0.0,M,,*0B
$GPRMC,221341,A,2500.3360,N,12117.1773,E,15.3,350.5,141123,,*6A
$GPGGA,221341,2500.3360,N,12117.1773,E,1,08,3.5,10.0,M,0.0,M,,*0A
$GPRMC,221342,A,2500.3309,N,12117.1814,E,15.7,350.5,141123,,*6C
$GPGGA,221342,2500.3309,N,12117.1814,E,1,08,3.5,10.0,M,0.0,M,,*08
$GPRMC,221343,A,2500.3242,N,12117.1890,E,8.4,80.7,141123,,*6C
$GPGGA,221343,2500.3242,N,12117.1890,E,1,08,3.5,10.0,M,0.0,M,,*0B
$GPRMC,221344,A,2500.3207,N,12117.1839,E,10.7,80.7,141123,,*53
$GPGGA,221344,2500.3207,N,12117.1839,E,1,08,3.5,10.0,M,0.0,M,,*0E
$GPRMC,221345,A,2500.3176,N,12117.1820,E,13.0,80.7,141123,,*5B
$GPGGA,221345,2500.3176,N,12117.1820,E,1,08,3.5,10.0,M,0.0,M,,*02
$GPRMC,221346,A,2500.3187,N,12117.1797,E,15.4,80.7,141123,,*57
$GPGGA,221346,2500.3187,N,12117.1797,E,1,08,3.5,10.0,M,0.0,M,,*0C
$GPRMC,221347,A,2500.3233,N,12117.1866,E,14.2,80.7,141123,,*5C
$GPGGA,221347,2500.3233,N,12117.1866,E,1,08,3.5,10.0,M,0.0,M,,*00
$GPRMC,221348,A,2500.3252,N,12117.1951,E,16.6,80.7,141123,,*57
$GPGGA,221348,2500.3252,N,12117.1951,E,1,08,3.5,10.0,M,0.0,M,,*0D
$GPRMC,221349,A,2500.3309,N,12117.2105,E,18.9,80.7,141123,,*52
$GPGGA,221349,2500.3309,N,12117.2105,E,1,08,3.5,10.0,M,0.0,M,,*09
$GPRMC,221350,A,2500.3419,N,12117.2004,E,21.2,80.7,141123,,*5D
$GPGGA,221350,2500.3419,N,12117.2004,E,1,08,3.5,10.0,M,0.0,M,,*07
$GPRMC,221351,A,2500.3452,N,12117.2089,E,17.7,80.7,141123,,*56
$GPGGA,221351,2500.3452,N,12117.2089,E,1,08,3.5,10.0,M,0.0,M,,*0C
$GPRMC,221352,A,2500.3620,N,12117.2130,E,14.2,80.7,141123,,*57
$GPGGA,221352,2500.3620,N,12117.2130,E,1,08,3.5,10.0,M,0.0,M,,*0B
$GPRMC,221353,A,2500.3513,N,12117.2217,E,16.6,80.7,141123,,*55
$GPGGA,221353,2500.3513,N,12117.2217,E,1,08,3.5,10.0,M,0.0,M,,*0F
$GPRMC,221354,A,2500.3455,N,12117.2287,E,18.8,80.7,141123,,*58
$GPGGA,221354,2500.3455,N,12117.2287,E,1,08,3.5,10.0,M,0.0,M,,*02
$GPRMC,221355,A,2500.3514,N,12117.2277,E,15.3,80.7,141123,,*54
$GPGGA,221355,2500.3514,N,12117.2277,E,1,08,3.5,10.0,M,0.0,M,,*08
$GPRMC,221356,A,2500.3595,N,12117.2284,E,14.0,80.7,141123,,*50
$GPGGA,221356,2500.3595,N,12117.2284,E,1,08,3.5,10.0,M,0.0,M,,*0E
$GPRMC,221357,A,2500.3479,N,12117.2370,E,14.6,80.7,141123,,*5E
$GPGGA,221357,2500.3479,N,12117.2370,E,1,08,3.5,10.0,M,0.0,M,,*06
$GPRMC,221358,A,2500.3456,N,12117.2392,E,13.5,80.7,141123,,*54
$GPGGA,221358,2500.3456,N,12117.2392,E,1,08,3.5,10.0,M,0.0,M,,*08
$GPRMC,221359,A,2500.3651,N,12117.2541,E,12.5,80.7,141123,,*59
$GPGGA,221359,2500.3651,N,12117.2541,E,1,08,3.5,10.0,M,0.0,M,,*04
$GPRMC,221400,A,2500.3731,N,12117.2553,E,11.5,80.7,141123,,*55
$GPGGA,221400,2500.3731,N,12117.2553,E,1,08,3.5,10.0,M,0.0,M,,*0B
$GPRMC,221401,A,2500.3574,N,12117.2436,E,10.6,80.7,141123,,*57
$GPGGA,221401,2500.3574,N,12117.2436,E,1,08,3.5,10.0,M,0.0,M,,*0B
$GPRMC,221402,A,2500.3608,N,12117.2417,E,9.8,80.7,141123,,*69
$GPGGA,221402,2500.3608,N,12117.2417,E,1,08,3.5,10.0,M,0.0,M,,*03
$GPRMC,221403,A,2500.3532,N,12117.2473,E,9.1,80.7,141123,,*69
$GPGGA,221403,2500.3532,N,12117.2473,E,1,08,3.5,10.0,M,0.0,M,,*0A
$GPRMC,221404,A,2500.3563,N,12117.2392,E,8.4,80.7,141123,,*66
$GPGGA,221404,2500.3563,N,12117.2392,E,1,08,3.5,10.0,M,0.0,M,,*01
$GPRMC,221405,A,2500.3679,N,12117.2326,E,7.8,80.7,141123,,*63
$GPGGA,221405,2500.3679,N,12117.2326,E,1,08,3.5,10.0,M,0.0,M,,*07
$GPRMC,221406,A,2500.3647,N,12117.2447,E,7.2,80.7,141123,,*67
$GPGGA,221406,2500.3647,N,12117.2447,E,1,08,3.5,10.0,M,0.0,M,,*09
$GPRMC,221407,A,2500.3565,N,12117.2534,E,6.6,80.7,141123,,*65
$GPGGA,221407,2500.3565,N,12117.2534,E,1,08,3.5,10.0,M,0.0,M,,*0E
$GPRMC,221408,A,2500.3464,N,12117.2468,E,6.1,80.7,141123,,*65
$GPGGA,221408,2500.3464,N,12117.2468,E,1,08,3.5,10.0,M,0.0,M,,*09
$GPRMC,221409,A,2500.3433,N,12117.2490,E,5.6,80.7,141123,,*65
$GPGGA,221409,2500.3433,N,12117.2490,E,1,08,3.5,10.0,M,0.0,M,,*0D
$GPRMC,221410,A,2500.3450,N,12117.2447,E,5.2,80.7,141123,,*66
$GPGGA,221410,2500.3450,N,12117.2447,E,1,08,3.5,10.0,M,0.0,M,,*0A
$GPRMC,221411,A,2500.3489,N,12117.2458,E,4.8,80.7,141123,,*66
$GPGGA,221411,2500.3489,N,12117.2458,E,1,08,3.5,10.0,M,0.0,M,,*01
$GPRMC,221412,A,2500.3571,N,12117.2600,E,0.0,90.0,141123,,*66
$GPGGA,221412,2500.3571,N,12117.2600,E,1,08,3.5,10.0,M,0.0,M,,*0B
$GPRMC,221413,A,2500.3433,N,12117.2793,E,0.0,90.0,141123,,*6B
$GPGGA,221413,2500.3433,N,12117.2793,E,1,08,3.5,10.0,M,0.0,M,,*06
$GPRMC,221414,A,2500.3455,N,12117.2804,E,0.0,90.0,141123,,*6D
$GPGGA,221414,2500.3455,N,12117.2804,E,1,08,3.5,10.0,M,0.0,M,,*00
$GPRMC,221415,A,2500.3610,N,12117.2841,E,0.0,90.0,141123,,*6E
$GPGGA,221415,2500.3610,N,12117.2841,E,1,08,3.5,10.0,M,0.0,M,,*03
$GPRMC,221416,A,2500.3620,N,12117.2838,E,0.0,90.0,141123,,*60
$GPGGA,221416,2500.3620,N,12117.2838,E,1,08,3.5,10.0,M,0.0,M,,*0D
$GPRMC,221417,A,2500.3679,N,12117.2772,E,0.0,90.0,141123,,*6C
$GPGGA,221417,2500.3679,N,12117.2772,E,1,08,3.5,10.0,M,0.0,M,,*01
$GPRMC,221418,A,2500.3706,N,12117.2816,E,0.0,90.0,141123,,*67
$GPGGA,221418,2500.3706,N,12117.2816,E,1,08,3.5,10.0,M,0.0,M,,*0A
$GPRMC,221419,A,2500.3632,N,12117.2728,E,0.0,90.0,141123,,*62
$GPGGA,221419,2500.3632,N,12117.2728,E,1,08,3.5,10.0,M,0.0,M,,*0F
$GPRMC,221420,A,2500.3612,N,12117.2683,E,0.0,90.0,141123,,*6A
$GPGGA,221420,2500.3612,N,12117.2683,E,1,08,3.5,10.0,M,0.0,M,,*07
$GPRMC,221421,A,2500.3698,N,12117.2724,E,0.0,90.0,141123,,*65
$GPGGA,221421,2500.3698,N,12117.2724,E,1,08,3.5,10.0,M,0.0,M,,*08
$GPRMC,221422,A,2500.3656,N,12117.2688,E,0.0,90.0,141123,,*63
$GPGGA,221422,2500.3656,N,12117.2688,E,1,08,3.5,10.0,M,0.0,M,,*0E
$GPRMC,221423,A,2500.3598,N,12117.2831,E,8.4,90.0,141123,,*63
$GPGGA,221423,2500.3598,N,12117.2831,E,1,08,3.5,10.0,M,0.0,M,,*02
$GPRMC,221424,A,2500.3653,N,12117.2849,E,10.7,90.0,141123,,*55
$GPGGA,221424,2500.3653,N,12117.2849,E,1,08,3.5,10.0,M,0.0,M,,*0E
$GPRMC,221425,A,2500.3642,N,12117.2757,E,13.0,90.0,141123,,*50
$GPGGA,221425,2500.3642,N,12117.2757,E,1,08,3.5,10.0,M,0.0,M,,*0F
$GPRMC,221426,A,2500.3621,N,12117.2882,E,15.4,90.0,141123,,*53
$GPGGA,221426,2500.3621,N,12117.2882,E,1,08,3.5,10.0,M,0.0,M,,*0E
$GPRMC,221427,A,2500.3550,N,12117.3046,E,14.6,90.0,141123,,*55
$GPGGA,221427,2500.3550,N,12117.3046,E,1,08,3.5,10.0,M,0.0,M,,*0B
$GPRMC,221428,A,2500.3452,N,12117.3037,E,14.6,90.0,141123,,*5F
$GPGGA,221428,2500.3452,N,12117.3037,E,1,08,3.5,10.0,M,0.0,M,,*01
$GPRMC,221429,A,2500.3525,N,12117.3047,E,11.9,90.0,141123,,*52
$GPGGA,221429,2500.3525,N,12117.3047,E,1,08,3.5,10.0,M,0.0,M,,*06
$GPRMC,221430,A,2500.3447,N,12117.3218,E,14.3,90.0,141123,,*58
$GPGGA,221430,2500.3447,N,12117.3218,E,1,08,3.5,10.0,M,0.0,M,,*03
$GPRMC,221431,A,2500.3552,N,12117.3159,E,16.6,90.0,141123,,*5D
$GPGGA,221431,2500.3552,N,12117.3159,E,1,08,3.5,10.0,M,0.0,M,,*01
$GPRMC,221432,A,2500.3526,N,12117.3115,E,13.1,90.0,141123,,*57
$GPGGA,221432,2500.3526,N,12117.3115,E,1,08,3.5,10.0,M,0.0,M,,*09
$GPRMC,221433,A,2500.3547,N,12117.3105,E,13.9,90.0,141123,,*58
$GPGGA,221433,2500.3547,N,12117.3105,E,1,08,3.5,10.0,M,0.0,M,,*0E
$GPRMC,221434,A,2500.3620,N,12117.3307,E,16.2,90.0,141123,,*53
$GPGGA,221434,2500.3620,N,12117.3307,E,1,08,3.5,10.0,M,0.0,M,,*0B
$GPRMC,221435,A,2500.3490,N,12117.3232,E,12.7,90.0,141123,,*5D
$GPGGA,221435,2500.3490,N,12117.3232,E,1,08,3.5,10.0,M,0.0,M,,*04
$GPRMC,221436,A,2500.3456,N,12117.3311,E,15.0,90.0,141123,,*54
$GPGGA,221436,2500.3456,N,12117.3311,E,1,08,3.5,10.0,M,0.0,M,,*0D
$GPRMC,221437,A,2500.3430,N,12117.3289,E,14.1,90.0,141123,,*55
$GPGGA,221437,2500.3430,N,12117.3289,E,1,08,3.5,10.0,M,0.0,M,,*0C
$GPRMC,221438,A,2500.3418,N,12117.3477,E,12.8,90.0,141123,,*58
$GPGGA,221438,2500.3418,N,12117.3477,E,1,08,3.5,10.0,M,0.0,M,,*0E
$GPRMC,221439,A,2500.3390,N,12117.3401,E,11.7,90.0,141123,,*53
$GPGGA,221439,2500.3390,N,12117.3401,E,1,08,3.5,10.0,M,0.0,M,,*09
$GPRMC,221440,A,2500.3421,N,12117.3469,E,10.6,90.0,141123,,*5E
$GPGGA,221440,2500.3421,N,12117.3469,E,1,08,3.5,10.0,M,0.0,M,,*04
$GPRMC,221441,A,2500.3427,N,12117.3586,E,9.7,90.0,141123,,*60
$GPGGA,221441,2500.3427,N,12117.3586,E,1,08,3.5,10.0,M,0.0,M,,*03
$GPRMC,221442,A,2500.3424,N,12117.3594,E,8.8,90.0,141123,,*6D
$GPGGA,221442,2500.3424,N,12117.3594,E,1,08,3.5,10.0,M,0.0,M,,*00
$GPRMC,221443,A,2500.3405,N,12117.3643,E,8.1,90.0,141123,,*6F
$GPGGA,221443,2500.3405,N,12117.3643,E,1,08,3.5,10.0,M,0.0,M,,*0B
$GPRMC,221444,A,2500.3545,N,12117.3629,E,7.3,90.0,141123,,*6C
$GPGGA,221444,2500.3545,N,12117.3629,E,1,08,3.5,10.0,M,0.0,M,,*05
$GPRMC,221445,A,2500.3669,N,12117.3738,E,6.7,90.0,141123,,*64
$GPGGA,221445,2500.3669,N,12117.3738,E,1,08,3.5,10.0,M,0.0,M,,*08
$GPRMC,221446,A,2500.3520,N,12117.3626,E,6.1,90.0,141123,,*61
$GPGGA,221446,2500.3520,N,12117.3626,E,1,08,3.5,10.0,M,0.0,M,,*0B
$GPRMC,221447,A,2500.3471,N,12117.3539,E,5.6,90.0,141123,,*6C
$GPGGA,221447,2500.3471,N,12117.3539,E,1,08,3.5,10.0,M,0.0,M,,*02
$GPRMC,221448,A,2500.3560,N,12117.3611,E,5.1,90.0,141123,,*6C
$GPGGA,221448,2500.3560,N,12117.3611,E,1,08,3.5,10.0,M,0.0,M,,*05
$GPRMC,221449,A,2500.3697,N,12117.3599,E,4.6,90.0,141123,,*63
$GPGGA,221449,2500.3697,N,12117.3599,E,1,08,3.5,10.0,M,0.0,M,,*0C
$GPRMC,221450,A,2500.3725,N,12117.3621,E,0.0,110.0,141123,,*58
$GPGGA,221450,2500.3725,N,12117.3621,E,1,08,3.5,10.0,M,0.0,M,,*0C
$GPRMC,221451,A,2500.3633,N,12117.3703,E,0.0,110.0,141123,,*5E
$GPGGA,221451,2500.3633,N,12117.3703,E,1,08,3.5,10.0,M,0.0,M,,*0A
$GPRMC,221452,A,2500.3627,N,12117.3656,E,0.0,110.0,141123,,*59
$GPGGA,221452,2500.3627,N,12117.3656,E,1,08,3.5,10.0,M,0.0,M,,*0D
$GPRMC,221453,A,2500.3669,N,12117.3640,E,0.0,110.0,141123,,*55
$GPGGA,221453,2500.3669,N,12117.3640,E,1,08,3.5,10.0,M,0.0,M,,*01
$GPRMC,221454,A,2500.3594,N,12117.3618,E,0.0,110.0,141123,,*5E
$GPGGA,221454,2500.3594,N,12117.3618,E,1,08,3.5,10.0,M,0.0,M,,*0A
$GPRMC,221455,A,2500.3548,N,12117.3551,E,0.0,110.0,141123,,*50
$GPGGA,221455,2500.3548,N,12117.3551,E,1,08,3.5,10.0,M,0.0,M,,*04
$GPRMC,221456,A,2500.3640,N,12117.3553,E,0.0,110.0,141123,,*5A
$GPGGA,221456,2500.3640,N,12117.3553,E,1,08,3.5,10.0,M,0.0,M,,*0E
$GPRMC,221457,A,2500.3489,N,12117.3543,E,0.0,110.0,141123,,*5D
$GPGGA,221457,2500.3489,N,12117.3543,E,1,08,3.5,10.0,M,0.0,M,,*09
$GPRMC,221458,A,2500.3514,N,12117.3657,E,0.0,110.0,141123,,*51
$GPGGA,221458,2500.3514,N,12117.3657,E,1,08,3.5,10.0,M,0.0,M,,*05
$GPRMC,221459,A,2500.3551,N,12117.3664,E,0.0,110.0,141123,,*51
$GPGGA,221459,2500.3551,N,12117.3664,E,1,08,3.5,10.0,M,0.0,M,,*05
$GPRMC,221500,A,2500.3600,N,12117.3650,E,0.0,110.0,141123,,*5C
$GPGGA,221500,2500.3600,N,12117.3650,E,1,08,3.5,10.0,M,0.0,M,,*08
$GPRMC,221501,A,2500.3676,N,12117.3643,E,8.4,110.0,141123,,*52
$GPGGA,221501,2500.3676,N,12117.3643,E,1,08,3.5,10.0,M,0.0,M,,*0A
$GPRMC,221502,A,2500.3598,N,12117.3775,E,10.7,110.0,141123,,*6C
$GPGGA,221502,2500.3598,N,12117.3775,E,1,08,3.5,10.0,M,0.0,M,,*0E
$GPRMC,221503,A,2500.3447,N,12117.3857,E,13.0,110.0,141123,,*65
$GPGGA,221503,2500.3447,N,12117.3857,E,1,08,3.5,10.0,M,0.0,M,,*03
$GPRMC,221504,A,2500.3259,N,12117.3859,E,15.4,110.0,141123,,*67
$GPGGA,221504,2500.3259,N,12117.3859,E,1,08,3.5,10.0,M,0.0,M,,*03
$GPRMC,221505,A,2500.3274,N,12117.3996,E,17.7,110.0,141123,,*6A
$GPGGA,221505,2500.3274,N,12117.3996,E,1,08,3.5,10.0,M,0.0,M,,*0F
$GPRMC,221506,A,2500.3334,N,12117.4022,E,14.2,110.0,141123,,*6B
$GPGGA,221506,2500.3334,N,12117.4022,E,1,08,3.5,10.0,M,0.0,M,,*08
$GPRMC,221507,A,2500.3396,N,12117.4112,E,16.5,110.0,141123,,*65
$GPGGA,221507,2500.3396,N,12117.4112,E,1,08,3.5,10.0,M,0.0,M,,*03
$GPRMC,221508,A,2500.3461,N,12117.4066,E,15.1,110.0,141123,,*60
$GPGGA,221508,2500.3461,N,12117.4066,E,1,08,3.5,10.0,M,0.0,M,,*01
$GPRMC,221509,A,2500.3436,N,12117.4148,E,17.4,110.0,141123,,*69
$GPGGA,221509,2500.3436,N,12117.4148,E,1,08,3.5,10.0,M,0.0,M,,*0F
$GPRMC,221510,A,2500.3458,N,12117.4168,E,13.9,110.0,141123,,*62
$GPGGA,221510,2500.3458,N,12117.4168,E,1,08,3.5,10.0,M,0.0,M,,*0D
$GPRMC,221511,A,2500.3478,N,12117.4274,E,11.1,110.0,141123,,*65
$GPGGA,221511,2500.3478,N,12117.4274,E,1,08,3.5,10.0,M,0.0,M,,*00
$GPRMC,221512,A,2500.3354,N,12117.4181,E,9.6,110.0,141123,,*58
$GPGGA,221512,2500.3354,N,12117.4181,E,1,08,3.5,10.0,M,0.0,M,,*03
$GPRMC,221513,A,2500.3311,N,12117.4197,E,8.2,110.0,141123,,*5A
$GPGGA,221513,2500.3311,N,12117.4197,E,1,08,3.5,10.0,M,0.0,M,,*04
$GPRMC,221514,A,2500.3283,N,12117.4072,E,7.1,110.0,141123,,*51
$GPGGA,221514,2500.3283,N,12117.4072,E,1,08,3.5,10.0,M,0.0,M,,*03
$GPRMC,221515,A,2500.3312,N,12117.4089,E,6.1,110.0,141123,,*5C
$GPGGA,221515,2500.3312,N,12117.4089,E,1,08,3.5,10.0,M,0.0,M,,*0F
$GPRMC,221516,A,2500.3282,N,12117.4111,E,5.3,110.0,141123,,*56
$GPGGA,221516,2500.3282,N,12117.4111,E,1,08,3.5,10.0,M,0.0,M,,*04
$GPRMC,221517,A,2500.3294,N,12117.4285,E,0.0,118.1,141123,,*51
$GPGGA,221517,2500.3294,N,12117.4285,E,1,08,3.5,10.0,M,0.0,M,,*0C
$GPRMC,221518,A,2500.3388,N,12117.4390,E,0.0,118.1,141123,,*57
$GPGGA,221518,2500.3388,N,12117.4390,E,1,08,3.5,10.0,M,0.0,M,,*0A
$GPRMC,221519,A,2500.3226,N,12117.4300,E,0.0,118.1,141123,,*5A
$GPGGA,221519,2500.3226,N,12117.4300,E,1,08,3.5,10.0,M,0.0,M,,*07
$GPRMC,221520,A,2500.3337,N,12117.4239,E,0.0,118.1,141123,,*5A
$GPGGA,221520,2500.3337,N,12117.4239,E,1,08,3.5,10.0,M,0.0,M,,*07
$GPRMC,221521,A,2500.3371,N,12117.4316,E,0.0,118.1,141123,,*55
$GPGGA,221521,2500.3371,N,12117.4316,E,1,08,3.5,10.0,M,0.0,M,,*08
$GPRMC,221522,A,2500.3346,N,12117.4170,E,0.0,118.1,141123,,*50
$GPGGA,221522,2500.3346,N,12117.4170,E,1,08,3.5,10.0,M,0.0,M,,*0D
$GPRMC,221523,A,2500.3284,N,12117.4286,E,0.0,118.1,141123,,*54
$GPGGA,221523,2500.3284,N,12117.4286,E,1,08,3.5,10.0,M,0.0,M,,*09
$GPRMC,221524,A,2500.3334,N,12117.4297,E,0.0,118.1,141123,,*59
$GPGGA,221524,2500.3334,N,12117.4297,E,1,08,3.5,10.0,M,0.0,M,,*04
$GPRMC,221525,A,2500.3319,N,12117.4305,E,8.4,118.1,141123,,*51
$GPGGA,221525,2500.3319,N,12117.4305,E,1,08,3.5,10.0,M,0.0,M,,*00
$GPRMC,221526,A,2500.3254,N,12117.4180,E,10.7,118.1,141123,,*6F
$GPGGA,221526,2500.3254,N,12117.4180,E,1,08,3.5,10.0,M,0.0,M,,*04
$GPRMC,221527,A,2500.3238,N,12117.4351,E,13.0,118.1,141123,,*6E
$GPGGA,221527,2500.3238,N,12117.4351,E,1,08,3.5,10.0,M,0.0,M,,*01
$GPRMC,221528,A,2500.3277,N,12117.4447,E,15.4,118.1,141123,,*68
$GPGGA,221528,2500.3277,N,12117.4447,E,1,08,3.5,10.0,M,0.0,M,,*05
$GPRMC,221529,A,2500.3271,N,12117.4413,E,13.9,118.1,141123,,*65
$GPGGA,221529,2500.3271,N,12117.4413,E,1,08,3.5,10.0,M,0.0,M,,*03
$GPRMC,221530,A,2500.3171,N,12117.4375,E,16.3,118.1,141123,,*66
$GPGGA,221530,2500.3171,N,12117.4375,E,1,08,3.5,10.0,M,0.0,M,,*0F
$GPRMC,221531,A,2500.3283,N,12117.4469,E,12.8,118.1,141123,,*6C
$GPGGA,221531,2500.3283,N,12117.4469,E,1,08,3.5,10.0,M,0.0,M,,*0A
$GPRMC,221532,A,2500.3264,N,12117.4468,E,15.1,118.1,141123,,*69
$GPGGA,221532,2500.3264,N,12117.4468,E,1,08,3.5,10.0,M,0.0,M,,*01
$GPRMC,221533,A,2500.3325,N,12117.4400,E,11.6,118.1,141123,,*61
$GPGGA,221533,2500.3325,N,12117.4400,E,1,08,3.5,10.0,M,0.0,M,,*0A
$GPRMC,221534,A,2500.3361,N,12117.4394,E,13.9,118.1,141123,,*61
$GPGGA,221534,2500.3361,N,12117.4394,E,1,08,3.5,10.0,M,0.0,M,,*07
$GPRMC,221535,A,2500.3249,N,12117.4383,E,15.0,118.1,141123,,*62
$GPGGA,221535,2500.3249,N,12117.4383,E,1,08,3.5,10.0,M,0.0,M,,*0B
$GPRMC,221536,A,2500.3201,N,12117.4528,E,17.4,118.1,141123,,*6C
$GPGGA,221536,2500.3201,N,12117.4528,E,1,08,3.5,10.0,M,0.0,M,,*03
$GPRMC,221537,A,2500.3069,N,12117.4590,E,13.9,118.1,141123,,*6B
$GPGGA,221537,2500.3069,N,12117.4590,E,1,08,3.5,10.0,M,0.0,M,,*0D
$GPRMC,221538,A,2500.2948,N,12117.4731,E,16.0,118.1,141123,,*6A
$GPGGA,221538,2500.2948,N,12117.4731,E,1,08,3.5,10.0,M,0.0,M,,*00
$GPRMC,221539,A,2500.2959,N,12117.4759,E,14.5,118.1,141123,,*62
$GPGGA,221539,2500.2959,N,12117.4759,E,1,08,3.5,10.0,M,0.0,M,,*0F
$GPRMC,221540,A,2500.2890,N,12117.4835,E,16.4,118.1,141123,,*6E
$GPGGA,221540,2500.2890,N,12117.4835,E,1,08,3.5,10.0,M,0.0,M,,*00
$GPRMC,221541,A,2500.2911,N,12117.4863,E,18.7,118.1,141123,,*69
$GPGGA,221541,2500.2911,N,12117.4863,E,1,08,3.5,10.0,M,0.0,M,,*0A
$GPRMC,221542,A,2500.2949,N,12117.5027,E,17.9,118.1,141123,,*6F
$GPGGA,221542,2500.2949,N,12117.5027,E,1,08,3.5,10.0,M,0.0,M,,*0D
$GPRMC,221543,A,2500.2814,N,12117.5114,E,14.4,118.1,141123,,*68
$GPGGA,221543,2500.2814,N,12117.5114,E,1,08,3.5,10.0,M,0.0,M,,*04
$GPRMC,221544,A,2500.2882,N,12117.5028,E,16.7,118.1,141123,,*6F
$GPGGA,221544,2500.2882,N,12117.5028,E,1,08,3.5,10.0,M,0.0,M,,*02
$GPRMC,221545,A,2500.2898,N,12117.5161,E,18.9,118.1,141123,,*69
$GPGGA,221545,2500.2898,N,12117.5161,E,1,08,3.5,10.0,M,0.0,M,,*04
$GPRMC,221546,A,2500.2954,N,12117.5162,E,16.2,118.1,141123,,*6D
$GPGGA,221546,2500.2954,N,12117.5162,E,1,08,3.5,10.0,M,0.0,M,,*05
$GPRMC,221547,A,2500.3031,N,12117.5203,E,15.2,118.1,141123,,*60
$GPGGA,221547,2500.3031,N,12117.5203,E,1,08,3.5,10.0,M,0.0,M,,*0B
$GPRMC,221548,A,2500.2991,N,12117.5270,E,13.1,118.1,141123,,*6C
$GPGGA,221548,2500.2991,N,12117.5270,E,1,08,3.5,10.0,M,0.0,M,,*02
$GPRMC,221549,A,2500.2888,N,12117.5232,E,8.4,125.7,141123,,*55
$GPGGA,221549,2500.2888,N,12117.5232,E,1,08,3.5,10.0,M,0.0,M,,*0C
$GPRMC,221550,A,2500.2909,N,12117.5252,E,10.7,125.7,141123,,*69
$GPGGA,221550,2500.2909,N,12117.5252,E,1,08,3.5,10.0,M,0.0,M,,*0A
$GPRMC,221551,A,2500.2885,N,12117.5270,E,10.5,125.7,141123,,*6F
$GPGGA,221551,2500.2885,N,12117.5270,E,1,08,3.5,10.0,M,0.0,M,,*0E
$GPRMC,221552,A,2500.2812,N,12117.5316,E,12.9,125.7,141123,,*6D
$GPGGA,221552,2500.2812,N,12117.5316,E,1,08,3.5,10.0,M,0.0,M,,*02
$GPRMC,221553,A,2500.2697,N,12117.5451,E,11.9,125.7,141123,,*68
$GPGGA,221553,2500.2697,N,12117.5451,E,1,08,3.5,10.0,M,0.0,M,,*04
$GPRMC,221554,A,2500.2805,N,12117.5559,E,12.9,125.7,141123,,*60
$GPGGA,221554,2500.2805,N,12117.5559,E,1,08,3.5,10.0,M,0.0,M,,*0F
$GPRMC,221555,A,2500.2785,N,12117.5432,E,15.2,125.7,141123,,*66
$GPGGA,221555,2500.2785,N,12117.5432,E,1,08,3.5,10.0,M,0.0,M,,*05
$GPRMC,221556,A,2500.2818,N,12117.5469,E,11.7,125.7,141123,,*61
$GPGGA,221556,2500.2818,N,12117.5469,E,1,08,3.5,10.0,M,0.0,M,,*03
$GPRMC,221557,A,2500.2908,N,12117.5503,E,14.0,125.7,141123,,*6F
$GPGGA,221557,2500.2908,N,12117.5503,E,1,08,3.5,10.0,M,0.0,M,,*0F
$GPRMC,221558,A,2500.2739,N,12117.5493,E,12.6,125.7,141123,,*64
$GPGGA,221558,2500.2739,N,12117.5493,E,1,08,3.5,10.0,M,0.0,M,,*04
$GPRMC,221559,A,2500.2672,N,12117.5482,E,12.0,125.7,141123,,*6D
$GPGGA,221559,2500.2672,N,12117.5482,E,1,08,3.5,10.0,M,0.0,M,,*0B
$GPRMC,221600,A,2500.2523,N,12117.5725,E,14.4,125.7,141123,,*69
$GPGGA,221600,2500.2523,N,12117.5725,E,1,08,3.5,10.0,M,0.0,M,,*0D
$GPRMC,221601,A,2500.2546,N,12117.5768,E,16.7,125.7,141123,,*63
$GPGGA,221601,2500.2546,N,12117.5768,E,1,08,3.5,10.0,M,0.0,M,,*06
$GPRMC,221602,A,2500.2653,N,12117.5549,E,16.1,125.7,141123,,*60
$GPGGA,221602,2500.2653,N,12117.5549,E,1,08,3.5,10.0,M,0.0,M,,*03
$GPRMC,221603,A,2500.2437,N,12117.5648,E,18.4,125.7,141123,,*68
$GPGGA,221603,2500.2437,N,12117.5648,E,1,08,3.5,10.0,M,0.0,M,,*00
$GPRMC,221604,A,2500.2333,N,12117.5769,E,14.9,125.7,141123,,*6F
$GPGGA,221604,2500.2333,N,12117.5769,E,1,08,3.5,10.0,M,0.0,M,,*06
$GPRMC,221605,A,2500.2394,N,12117.5838,E,14.1,125.7,141123,,*60
$GPGGA,221605,2500.2394,N,12117.5838,E,1,08,3.5,10.0,M,0.0,M,,*01
$GPRMC,221606,A,2500.2525,N,12117.5894,E,8.4,143.1,141123,,*57
$GPGGA,221606,2500.2525,N,12117.5894,E,1,08,3.5,10.0,M,0.0,M,,*08
$GPRMC,221607,A,2500.2501,N,12117.5817,E,10.7,143.1,141123,,*61
$GPGGA,221607,2500.2501,N,12117.5817,E,1,08,3.5,10.0,M,0.0,M,,*04
$GPRMC,221608,A,2500.2421,N,12117.5711,E,13.0,143.1,141123,,*60
$GPGGA,221608,2500.2421,N,12117.5711,E,1,08,3.5,10.0,M,0.0,M,,*01
$GPRMC,221609,A,2500.2347,N,12117.5818,E,15.4,143.1,141123,,*62
$GPGGA,221609,2500.2347,N,12117.5818,E,1,08,3.5,10.0,M,0.0,M,,*01
$GPRMC,221610,A,2500.2509,N,12117.5902,E,16.1,143.1,141123,,*6A
$GPGGA,221610,2500.2509,N,12117.5902,E,1,08,3.5,10.0,M,0.0,M,,*0F
$GPRMC,221611,A,2500.2434,N,12117.5905,E,13.9,143.1,141123,,*6E
$GPGGA,221611,2500.2434,N,12117.5905,E,1,08,3.5,10.0,M,0.0,M,,*06
$GPRMC,221612,A,2500.2438,N,12117.5924,E,15.6,143.1,141123,,*6B
$GPGGA,221612,2500.2438,N,12117.5924,E,1,08,3.5,10.0,M,0.0,M,,*0A
$GPRMC,221613,A,2500.2293,N,12117.6070,E,18.0,143.1,141123,,*6D
$GPGGA,221613,2500.2293,N,12117.6070,E,1,08,3.5,10.0,M,0.0,M,,*07
$GPRMC,221614,A,2500.2182,N,12117.6136,E,20.3,143.1,141123,,*62
$GPGGA,221614,2500.2182,N,12117.6136,E,1,08,3.5,10.0,M,0.0,M,,*00
$GPRMC,221615,A,2500.2104,N,12117.6177,E,16.8,143.1,141123,,*66
$GPGGA,221615,2500.2104,N,12117.6177,E,1,08,3.5,10.0,M,0.0,M,,*0A
$GPRMC,221616,A,2500.2060,N,12117.6176,E,15.4,143.1,141123,,*68
$GPGGA,221616,2500.2060,N,12117.6176,E,1,08,3.5,10.0,M,0.0,M,,*0B
$GPRMC,221617,A,2500.2169,N,12117.6135,E,11.9,143.1,141123,,*6F
$GPGGA,221617,2500.2169,N,12117.6135,E,1,08,3.5,10.0,M,0.0,M,,*05
$GPRMC,221618,A,2500.2238,N,12117.6091,E,14.2,143.1,141123,,*66
$GPGGA,221618,2500.2238,N,12117.6091,E,1,08,3.5,10.0,M,0.0,M,,*02
$GPRMC,221619,A,2500.2165,N,12117.5985,E,8.4,161.2,141123,,*5B
$GPGGA,221619,2500.2165,N,12117.5985,E,1,08,3.5,10.0,M,0.0,M,,*07
$GPRMC,221620,A,2500.2112,N,12117.5979,E,10.7,161.2,141123,,*68
$GPGGA,221620,2500.2112,N,12117.5979,E,1,08,3.5,10.0,M,0.0,M,,*0E
$GPRMC,221621,A,2500.1854,N,12117.6030,E,13.0,161.2,141123,,*62
$GPGGA,221621,2500.1854,N,12117.6030,E,1,08,3.5,10.0,M,0.0,M,,*00
$GPRMC,221622,A,2500.1893,N,12117.6094,E,14.5,161.2,141123,,*66
$GPGGA,221622,2500.1893,N,12117.6094,E,1,08,3.5,10.0,M,0.0,M,,*06
$GPRMC,221623,A,2500.1827,N,12117.6138,E,11.3,161.2,141123,,*6C
$GPGGA,221623,2500.1827,N,12117.6138,E,1,08,3.5,10.0,M,0.0,M,,*0F
$GPRMC,221624,A,2500.1754,N,12117.6179,E,13.7,161.2,141123,,*63
$GPGGA,221624,2500.1754,N,12117.6179,E,1,08,3.5,10.0,M,0.0,M,,*06
$GPRMC,221625,A,2500.1903,N,12117.6194,E,14.7,161.2,141123,,*6A
$GPGGA,221625,2500.1903,N,12117.6194,E,1,08,3.5,10.0,M,0.0,M,,*08
$GPRMC,221626,A,2500.1898,N,12117.5976,E,11.9,161.2,141123,,*66
$GPGGA,221626,2500.1898,N,12117.5976,E,1,08,3.5,10.0,M,0.0,M,,*0F
$GPRMC,221627,A,2500.1898,N,12117.6044,E,14.3,161.2,141123,,*63
$GPGGA,221627,2500.1898,N,12117.6044,E,1,08,3.5,10.0,M,0.0,M,,*05
$GPRMC,221628,A,2500.1979,N,12117.6229,E,16.6,161.2,141123,,*6C
$GPGGA,221628,2500.1979,N,12117.6229,E,1,08,3.5,10.0,M,0.0,M,,*0D
$GPRMC,221629,A,2500.1921,N,12117.6285,E,15.3,161.2,141123,,*60
$GPGGA,221629,2500.1921,N,12117.6285,E,1,08,3.5,10.0,M,0.0,M,,*07
$GPRMC,221630,A,2500.1715,N,12117.6220,E,14.1,161.2,141123,,*6D
$GPGGA,221630,2500.1715,N,12117.6220,E,1,08,3.5,10.0,M,0.0,M,,*09
$GPRMC,221631,A,2500.1749,N,12117.6335,E,13.5,161.2,141123,,*63
$GPGGA,221631,2500.1749,N,12117.6335,E,1,08,3.5,10.0,M,0.0,M,,*04
$GPRMC,221632,A,2500.1712,N,12117.6287,E,12.5,161.2,141123,,*67
$GPGGA,221632,2500.1712,N,12117.6287,E,1,08,3.5,10.0,M,0.0,M,,*01
$GPRMC,221633,A,2500.1566,N,12117.6326,E,13.0,161.2,141123,,*69
$GPGGA,221633,2500.1566,N,12117.6326,E,1,08,3.5,10.0,M,0.0,M,,*0B
$GPRMC,221634,A,2500.1539,N,12117.6264,E,14.8,161.2,141123,,*6C
$GPGGA,221634,2500.1539,N,12117.6264,E,1,08,3.5,10.0,M,0.0,M,,*01
$GPRMC,221635,A,2500.1522,N,12117.6239,E,15.8,161.2,141123,,*6E
$GPGGA,221635,2500.1522,N,12117.6239,E,1,08,3.5,10.0,M,0.0,M,,*02
$GPRMC,221636,A,2500.1518,N,12117.6352,E,18.1,161.2,141123,,*6C
$GPGGA,221636,2500.1518,N,12117.6352,E,1,08,3.5,10.0,M,0.0,M,,*04
$GPRMC,221637,A,2500.1434,N,12117.6365,E,20.4,161.2,141123,,*68
$GPGGA,221637,2500.1434,N,12117.6365,E,1,08,3.5,10.0,M,0.0,M,,*0E
$GPRMC,221638,A,2500.1553,N,12117.6454,E,16.9,161.2,141123,,*6A
$GPGGA,221638,2500.1553,N,12117.6454,E,1,08,3.5,10.0,M,0.0,M,,*04
$GPRMC,221639,A,2500.1486,N,12117.6451,E,13.5,161.2,141123,,*6E
$GPGGA,221639,2500.1486,N,12117.6451,E,1,08,3.5,10.0,M,0.0,M,,*09
$GPRMC,221640,A,2500.1495,N,12117.6364,E,15.8,161.2,141123,,*68
$GPGGA,221640,2500.1495,N,12117.6364,E,1,08,3.5,10.0,M,0.0,M,,*04
$GPRMC,221641,A,2500.1399,N,12117.6497,E,12.3,161.2,141123,,*65
$GPGGA,221641,2500.1399,N,12117.6497,E,1,08,3.5,10.0,M,0.0,M,,*05
$GPRMC,221642,A,2500.1357,N,12117.6504,E,14.6,161.2,141123,,*6C
$GPGGA,221642,2500.1357,N,12117.6504,E,1,08,3.5,10.0,M,0.0,M,,*0F
$GPRMC,221643,A,2500.1280,N,12117.6371,E,16.9,161.2,141123,,*6F
$GPGGA,221643,2500.1280,N,12117.6371,E,1,08,3.5,10.0,M,0.0,M,,*01
$GPRMC,221644,A,2500.1086,N,12117.6428,E,13.8,161.2,141123,,*63
$GPGGA,221644,2500.1086,N,12117.6428,E,1,08,3.5,10.0,M,0.0,M,,*09
$GPRMC,221645,A,2500.1160,N,12117.6509,E,16.1,161.2,141123,,*65
$GPGGA,221645,2500.1160,N,12117.6509,E,1,08,3.5,10.0,M,0.0,M,,*03
$GPRMC,221646,A,2500.1022,N,12117.6575,E,8.4,162.0,141123,,*51
$GPGGA,221646,2500.1022,N,12117.6575,E,1,08,3.5,10.0,M,0.0,M,,*0C
$GPRMC,221647,A,2500.0931,N,12117.6613,E,10.7,162.0,141123,,*63
$GPGGA,221647,2500.0931,N,12117.6613,E,1,08,3.5,10.0,M,0.0,M,,*04
$GPRMC,221648,A,2500.0899,N,12117.6477,E,13.0,162.0,141123,,*6B
$GPGGA,221648,2500.0899,N,12117.6477,E,1,08,3.5,10.0,M,0.0,M,,*08
$GPRMC,221649,A,2500.0978,N,12117.6489,E,14.8,162.0,141123,,*6A
$GPGGA,221649,2500.0978,N,12117.6489,E,1,08,3.5,10.0,M,0.0,M,,*06
$GPRMC,221650,A,2500.0961,N,12117.6462,E,17.1,162.0,141123,,*65
$GPGGA,221650,2500.0961,N,12117.6462,E,1,08,3.5,10.0,M,0.0,M,,*03
$GPRMC,221651,A,2500.0856,N,12117.6581,E,14.7,162.0,141123,,*68
$GPGGA,221651,2500.0856,N,12117.6581,E,1,08,3.5,10.0,M,0.0,M,,*0B
$GPRMC,221652,A,2500.0897,N,12117.6543,E,15.1,162.0,141123,,*6F
$GPGGA,221652,2500.0897,N,12117.6543,E,1,08,3.5,10.0,M,0.0,M,,*0B
$GPRMC,221653,A,2500.0820,N,12117.6483,E,17.4,162.0,141123,,*68
$GPGGA,221653,2500.0820,N,12117.6483,E,1,08,3.5,10.0,M,0.0,M,,*0B
$GPRMC,221654,A,2500.0851,N,12117.6581,E,16.0,162.0,141123,,*6F
$GPGGA,221654,2500.0851,N,12117.6581,E,1,08,3.5,10.0,M,0.0,M,,*09
$GPRMC,221655,A,2500.0765,N,12117.6629,E,15.0,162.0,141123,,*64
$GPGGA,221655,2500.0765,N,12117.6629,E,1,08,3.5,10.0,M,0.0,M,,*01
$GPRMC,221656,A,2500.0808,N,12117.6582,E,15.5,162.0,141123,,*64
$GPGGA,221656,2500.0808,N,12117.6582,E,1,08,3.5,10.0,M,0.0,M,,*04
$GPRMC,221657,A,2500.0865,N,12117.6481,E,12.4,162.0,141123,,*6A
$GPGGA,221657,2500.0865,N,12117.6481,E,1,08,3.5,10.0,M,0.0,M,,*0C
$GPRMC,221658,A,2500.0877,N,12117.6464,E,11.9,162.0,141123,,*63
$GPGGA,221658,2500.0877,N,12117.6464,E,1,08,3.5,10.0,M,0.0,M,,*0B
$GPRMC,221659,A,2500.0831,N,12117.6421,E,12.5,162.0,141123,,*6E
$GPGGA,221659,2500.0831,N,12117.6421,E,1,08,3.5,10.0,M,0.0,M,,*09
$GPRMC,221700,A,2500.0714,N,12117.6393,E,12.9,162.0,141123,,*69
$GPGGA,221700,2500.0714,N,12117.6393,E,1,08,3.5,10.0,M,0.0,M,,*02
$GPRMC,221701,A,2500.0694,N,12117.6485,E,15.3,162.0,141123,,*6C
$GPGGA,221701,2500.0694,N,12117.6485,E,1,08,3.5,10.0,M,0.0,M,,*0A
$GPRMC,221702,A,2500.0619,N,12117.6691,E,17.5,162.0,141123,,*69
$GPGGA,221702,2500.0619,N,12117.6691,E,1,08,3.5,10.0,M,0.0,M,,*0B
$GPRMC,221703,A,2500.0427,N,12117.6697,E,14.0,162.0,141123,,*67
$GPGGA,221703,2500.0427,N,12117.6697,E,1,08,3.5,10.0,M,0.0,M,,*03
$GPRMC,221704,A,2500.0515,N,12117.6643,E,13.0,162.0,141123,,*6E
$GPGGA,221704,2500.0515,N,12117.6643,E,1,08,3.5,10.0,M,0.0,M,,*0D
$GPRMC,221705,A,2500.0522,N,12117.6718,E,15.4,162.0,141123,,*66
$GPGGA,221705,2500.0522,N,12117.6718,E,1,08,3.5,10.0,M,0.0,M,,*07
$GPRMC,221706,A,2500.0574,N,12117.6760,E,11.9,162.0,141123,,*60
$GPGGA,221706,2500.0574,N,12117.6760,E,1,08,3.5,10.0,M,0.0,M,,*08
$GPRMC,221707,A,2500.0499,N,12117.6641,E,14.3,162.0,141123,,*6E
$GPGGA,221707,2500.0499,N,12117.6641,E,1,08,3.5,10.0,M,0.0,M,,*09
$GPRMC,221708,A,2500.0407,N,12117.6698,E,16.6,162.0,141123,,*65
$GPGGA,221708,2500.0407,N,12117.6698,E,1,08,3.5,10.0,M,0.0,M,,*05
$GPRMC,221709,A,2500.0411,N,12117.6758,E,13.1,162.0,141123,,*6C
$GPGGA,221709,2500.0411,N,12117.6758,E,1,08,3.5,10.0,M,0.0,M,,*0E
$GPRMC,221710,A,2500.0218,N,12117.6632,E,15.4,162.0,141123,,*65
$GPGGA,221710,2500.0218,N,12117.6632,E,1,08,3.5,10.0,M,0.0,M,,*04
$GPRMC,221711,A,2500.0226,N,12117.6734,E,16.8,162.0,141123,,*61
$GPGGA,221711,2500.0226,N,12117.6734,E,1,08,3.5,10.0,M,0.0,M,,*0F
$GPRMC,221712,A,2500.0182,N,12117.6730,E,13.3,162.0,141123,,*65
$GPGGA,221712,2500.0182,N,12117.6730,E,1,08,3.5,10.0,M,0.0,M,,*05
$GPRMC,221713,A,2500.0230,N,12117.6749,E,8.4,165.0,141123,,*5A
$GPGGA,221713,2500.0230,N,12117.6749,E,1,08,3.5,10.0,M,0.0,M,,*00
$GPRMC,221714,A,2500.0158,N,12117.6924,E,10.7,165.0,141123,,*6F
$GPGGA,221714,2500.0158,N,12117.6924,E,1,08,3.5,10.0,M,0.0,M,,*0F
$GPRMC,221715,A,2500.0147,N,12117.6951,E,13.0,165.0,141123,,*66
$GPGGA,221715,2500.0147,N,12117.6951,E,1,08,3.5,10.0,M,0.0,M,,*02
$GPRMC,221716,A,2459.9915,N,12117.6976,E,15.4,165.0,141123,,*69
$GPGGA,221716,2459.9915,N,12117.6976,E,1,08,3.5,10.0,M,0.0,M,,*0F
$GPRMC,221717,A,2459.9995,N,12117.7054,E,16.1,165.0,141123,,*6E
$GPGGA,221717,2459.9995,N,12117.7054,E,1,08,3.5,10.0,M,0.0,M,,*0E
$GPRMC,221718,A,2459.9937,N,12117.6990,E,14.3,165.0,141123,,*69
$GPGGA,221718,2459.9937,N,12117.6990,E,1,08,3.5,10.0,M,0.0,M,,*09
$GPRMC,221719,A,2459.9985,N,12117.6907,E,14.2,165.0,141123,,*6E
$GPGGA,221719,2459.9985,N,12117.6907,E,1,08,3.5,10.0,M,0.0,M,,*0F
$GPRMC,221720,A,2459.9956,N,12117.6955,E,11.2,165.0,141123,,*68
$GPGGA,221720,2459.9956,N,12117.6955,E,1,08,3.5,10.0,M,0.0,M,,*0C
$GPRMC,221721,A,2500.0018,N,12117.6985,E,12.0,165.0,141123,,*62
$GPGGA,221721,2500.0018,N,12117.6985,E,1,08,3.5,10.0,M,0.0,M,,*07
$GPRMC,221722,A,2459.9929,N,12117.7072,E,12.4,165.0,141123,,*6A
$GPGGA,221722,2459.9929,N,12117.7072,E,1,08,3.5,10.0,M,0.0,M,,*0B
$GPRMC,221723,A,2459.9874,N,12117.6989,E,11.1,165.0,141123,,*68
$GPGGA,221723,2459.9874,N,12117.6989,E,1,08,3.5,10.0,M,0.0,M,,*0F
$GPRMC,221724,A,2459.9754,N,12117.7050,E,13.5,165.0,141123,,*68
$GPGGA,221724,2459.9754,N,12117.7050,E,1,08,3.5,10.0,M,0.0,M,,*09
$GPRMC,221725,A,2459.9636,N,12117.7116,E,15.8,165.0,141123,,*64
$GPGGA,221725,2459.9636,N,12117.7116,E,1,08,3.5,10.0,M,0.0,M,,*0E
$GPRMC,221726,A,2459.9568,N,12117.7181,E,12.3,165.0,141123,,*6D
$GPGGA,221726,2459.9568,N,12117.7181,E,1,08,3.5,10.0,M,0.0,M,,*0B
$GPRMC,221727,A,2459.9522,N,12117.7006,E,14.6,165.0,141123,,*6F
$GPGGA,221727,2459.9522,N,12117.7006,E,1,08,3.5,10.0,M,0.0,M,,*0A
$GPRMC,221728,A,2459.9534,N,12117.7017,E,13.4,165.0,141123,,*62
$GPGGA,221728,2459.9534,N,12117.7017,E,1,08,3.5,10.0,M,0.0,M,,*02
$GPRMC,221729,A,2459.9549,N,12117.7027,E,15.8,165.0,141123,,*60
$GPGGA,221729,2459.9549,N,12117.7027,E,1,08,3.5,10.0,M,0.0,M,,*0A
$GPRMC,221730,A,2459.9541,N,12117.7091,E,17.9,165.0,141123,,*6E
$GPGGA,221730,2459.9541,N,12117.7091,E,1,08,3.5,10.0,M,0.0,M,,*07
$GPRMC,221731,A,2459.9508,N,12117.7152,E,8.4,173.3,141123,,*5B
$GPGGA,221731,2459.9508,N,12117.7152,E,1,08,3.5,10.0,M,0.0,M,,*05
$GPRMC,221732,A,2459.9361,N,12117.7081,E,10.7,173.3,141123,,*64
$GPGGA,221732,2459.9361,N,12117.7081,E,1,08,3.5,10.0,M,0.0,M,,*00
$GPRMC,221733,A,2459.9401,N,12117.7024,E,13.0,173.3,141123,,*6F
$GPGGA,221733,2459.9401,N,12117.7024,E,1,08,3.5,10.0,M,0.0,M,,*0F
$GPRMC,221734,A,2459.9297,N,12117.6911,E,12.1,173.3,141123,,*6F
$GPGGA,221734,2459.9297,N,12117.6911,E,1,08,3.5,10.0,M,0.0,M,,*0F
$GPRMC,221735,A,2459.9352,N,12117.6901,E,14.4,173.3,141123,,*64
$GPGGA,221735,2459.9352,N,12117.6901,E,1,08,3.5,10.0,M,0.0,M,,*07
$GPRMC,221736,A,2459.9350,N,12117.7044,E,16.7,173.3,141123,,*6D
$GPGGA,221736,2459.9350,N,12117.7044,E,1,08,3.5,10.0,M,0.0,M,,*0F
$GPRMC,221737,A,2459.9344,N,12117.7204,E,19.1,173.3,141123,,*66
$GPGGA,221737,2459.9344,N,12117.7204,E,1,08,3.5,10.0,M,0.0,M,,*0D
$GPRMC,221738,A,2459.9218,N,12117.7221,E,16.0,173.3,141123,,*68
$GPGGA,221738,2459.9218,N,12117.7221,E,1,08,3.5,10.0,M,0.0,M,,*0D
$GPRMC,221739,A,2459.9072,N,12117.7046,E,13.8,173.3,141123,,*69
$GPGGA,221739,2459.9072,N,12117.7046,E,1,08,3.5,10.0,M,0.0,M,,*01
$GPRMC,221740,A,2459.8968,N,12117.7059,E,16.2,173.3,141123,,*65
$GPGGA,221740,2459.8968,N,12117.7059,E,1,08,3.5,10.0,M,0.0,M,,*02
$GPRMC,221741,A,2459.9017,N,12117.6962,E,13.3,173.3,141123,,*60
$GPGGA,221741,2459.9017,N,12117.6962,E,1,08,3.5,10.0,M,0.0,M,,*03
$GPRMC,221742,A,2459.8958,N,12117.7056,E,15.3,173.3,141123,,*69
$GPGGA,221742,2459.8958,N,12117.7056,E,1,08,3.5,10.0,M,0.0,M,,*0C
$GPRMC,221743,A,2459.8908,N,12117.6986,E,17.7,173.3,141123,,*6E
$GPGGA,221743,2459.8908,N,12117.6986,E,1,08,3.5,10.0,M,0.0,M,,*0D
$GPRMC,221744,A,2459.8852,N,12117.6991,E,14.2,173.3,141123,,*67
$GPGGA,221744,2459.8852,N,12117.6991,E,1,08,3.5,10.0,M,0.0,M,,*02
$GPRMC,221745,A,2459.8809,N,12117.7115,E,8.4,180.0,141123,,*59
$GPGGA,221745,2459.8809,N,12117.7115,E,1,08,3.5,10.0,M,0.0,M,,*08
$GPRMC,221746,A,2459.8733,N,12117.7109,E,10.7,180.0,141123,,*6B
$GPGGA,221746,2459.8733,N,12117.7109,E,1,08,3.5,10.0,M,0.0,M,,*00
$GPRMC,221747,A,2459.8778,N,12117.7194,E,13.0,180.0,141123,,*65
$GPGGA,221747,2459.8778,N,12117.7194,E,1,08,3.5,10.0,M,0.0,M,,*0A
$GPRMC,221748,A,2459.8751,N,12117.7152,E,15.4,180.0,141123,,*69
$GPGGA,221748,2459.8751,N,12117.7152,E,1,08,3.5,10.0,M,0.0,M,,*04
$GPRMC,221749,A,2459.8840,N,12117.7147,E,12.4,180.0,141123,,*64
$GPGGA,221749,2459.8840,N,12117.7147,E,1,08,3.5,10.0,M,0.0,M,,*0E
$GPRMC,221750,A,2459.8726,N,12117.7200,E,13.0,180.0,141123,,*66
$GPGGA,221750,2459.8726,N,12117.7200,E,1,08,3.5,10.0,M,0.0,M,,*09
$GPRMC,221751,A,2459.8806,N,12117.7085,E,15.3,180.0,141123,,*60
$GPGGA,221751,2459.8806,N,12117.7085,E,1,08,3.5,10.0,M,0.0,M,,*0A
$GPRMC,221752,A,2459.8723,N,12117.7071,E,17.7,180.0,141123,,*66
$GPGGA,221752,2459.8723,N,12117.7071,E,1,08,3.5,10.0,M,0.0,M,,*0A
$GPRMC,221753,A,2459.8576,N,12117.7066,E,20.0,180.0,141123,,*60
$GPGGA,221753,2459.8576,N,12117.7066,E,1,08,3.5,10.0,M,0.0,M,,*0F
$GPRMC,221754,A,2459.8712,N,12117.7012,E,17.3,180.0,141123,,*63
$GPGGA,221754,2459.8712,N,12117.7012,E,1,08,3.5,10.0,M,0.0,M,,*0B
$GPRMC,221755,A,2459.8552,N,12117.7049,E,13.8,180.0,141123,,*65
$GPGGA,221755,2459.8552,N,12117.7049,E,1,08,3.5,10.0,M,0.0,M,,*02
$GPRMC,221756,A,2459.8440,N,12117.7089,E,11.9,180.0,141123,,*6B
$GPGGA,221756,2459.8440,N,12117.7089,E,1,08,3.5,10.0,M,0.0,M,,*0F
$GPRMC,221757,A,2459.8465,N,12117.7182,E,14.2,180.0,141123,,*69
$GPGGA,221757,2459.8465,N,12117.7182,E,1,08,3.5,10.0,M,0.0,M,,*03
$GPRMC,221758,A,2459.8632,N,12117.7105,E,12.7,180.0,141123,,*6A
$GPGGA,221758,2459.8632,N,12117.7105,E,1,08,3.5,10.0,M,0.0,M,,*03
$GPRMC,221759,A,2459.8508,N,12117.7147,E,15.0,180.0,141123,,*67
$GPGGA,221759,2459.8508,N,12117.7147,E,1,08,3.5,10.0,M,0.0,M,,*0E
$GPRMC,221800,A,2459.8354,N,12117.7213,E,14.6,180.0,141123,,*6E
$GPGGA,221800,2459.8354,N,12117.7213,E,1,08,3.5,10.0,M,0.0,M,,*00
$GPRMC,221801,A,2459.8264,N,12117.7164,E,16.9,180.0,141123,,*63
$GPGGA,221801,2459.8264,N,12117.7164,E,1,08,3.5,10.0,M,0.0,M,,*00
$GPRMC,221802,A,2459.8399,N,12117.7100,E,13.4,180.0,141123,,*69
$GPGGA,221802,2459.8399,N,12117.7100,E,1,08,3.5,10.0,M,0.0,M,,*02
$GPRMC,221803,A,2459.8262,N,12117.7105,E,14.5,180.0,141123,,*6E
$GPGGA,221803,2459.8262,N,12117.7105,E,1,08,3.5,10.0,M,0.0,M,,*03
$GPRMC,221804,A,2459.8093,N,12117.7101,E,16.8,180.0,141123,,*6E
$GPGGA,221804,2459.8093,N,12117.7101,E,1,08,3.5,10.0,M,0.0,M,,*0C
$GPRMC,221805,A,2459.8080,N,12117.7164,E,13.3,180.0,141123,,*60
$GPGGA,221805,2459.8080,N,12117.7164,E,1,08,3.5,10.0,M,0.0,M,,*0C
$GPRMC,221806,A,2459.8010,N,12117.7127,E,15.6,180.0,141123,,*6E
$GPGGA,221806,2459.8010,N,12117.7127,E,1,08,3.5,10.0,M,0.0,M,,*01
$GPRMC,221807,A,2459.8078,N,12117.7082,E,12.1,180.0,141123,,*6F
$GPGGA,221807,2459.8078,N,12117.7082,E,1,08,3.5,10.0,M,0.0,M,,*00
$GPRMC,221808,A,2459.8103,N,12117.7091,E,14.4,180.0,141123,,*6C
$GPGGA,221808,2459.8103,N,12117.7091,E,1,08,3.5,10.0,M,0.0,M,,*00
$GPRMC,221809,A,2459.8089,N,12117.7016,E,13.8,180.0,141123,,*6A
$GPGGA,221809,2459.8089,N,12117.7016,E,1,08,3.5,10.0,M,0.0,M,,*0D
$GPRMC,221810,A,2459.8049,N,12117.6975,E,12.6,180.0,141123,,*6C
$GPGGA,221810,2459.8049,N,12117.6975,E,1,08,3.5,10.0,M,0.0,M,,*04
$GPRMC,221811,A,2459.8022,N,12117.6939,E,14.9,180.0,141123,,*61
$GPGGA,221811,2459.8022,N,12117.6939,E,1,08,3.5,10.0,M,0.0,M,,*00
$GPRMC,221812,A,2459.7990,N,12117.6981,E,16.9,180.0,141123,,*6C
$GPGGA,221812,2459.7990,N,12117.6981,E,1,08,3.5,10.0,M,0.0,M,,*0F
$GPRMC,221813,A,2459.7822,N,12117.6955,E,15.5,180.0,141123,,*63
$GPGGA,221813,2459.7822,N,12117.6955,E,1,08,3.5,10.0,M,0.0,M,,*0F
$GPRMC,221814,A,2459.7770,N,12117.6958,E,14.6,180.0,141123,,*63
$GPGGA,221814,2459.7770,N,12117.6958,E,1,08,3.5,10.0,M,0.0,M,,*0D
$GPRMC,221815,A,2459.7748,N,12117.6890,E,16.9,180.0,141123,,*61
$GPGGA,221815,2459.7748,N,12117.6890,E,1,08,3.5,10.0,M,0.0,M,,*02
$GPRMC,221816,A,2459.7705,N,12117.6871,E,16.6,180.0,141123,,*6B
$GPGGA,221816,2459.7705,N,12117.6871,E,1,08,3.5,10.0,M,0.0,M,,*07
$GPRMC,221817,A,2459.7664,N,12117.6899,E,18.9,180.0,141123,,*6B
$GPGGA,221817,2459.7664,N,12117.6899,E,1,08,3.5,10.0,M,0.0,M,,*06
$GPRMC,221818,A,2459.7619,N,12117.6881,E,15.4,180.0,141123,,*67
$GPGGA,221818,2459.7619,N,12117.6881,E,1,08,3.5,10.0,M,0.0,M,,*0A
$GPRMC,221819,A,2459.7530,N,12117.6975,E,17.8,180.0,141123,,*6A
$GPGGA,221819,2459.7530,N,12117.6975,E,1,08,3.5,10.0,M,0.0,M,,*09
$GPRMC,221820,A,2459.7524,N,12117.6938,E,20.1,180.0,141123,,*61
$GPGGA,221820,2459.7524,N,12117.6938,E,1,08,3.5,10.0,M,0.0,M,,*0F
$GPRMC,221821,A,2459.7466,N,12117.6916,E,16.6,180.0,141123,,*69
$GPGGA,221821,2459.7466,N,12117.6916,E,1,08,3.5,10.0,M,0.0,M,,*05
$GPRMC,221822,A,2459.7365,N,12117.7037,E,15.1,180.0,141123,,*61
$GPGGA,221822,2459.7365,N,12117.7037,E,1,08,3.5,10.0,M,0.0,M,,*09
$GPRMC,221823,A,2459.7430,N,12117.6976,E,13.1,180.0,141123,,*6C
$GPGGA,221823,2459.7430,N,12117.6976,E,1,08,3.5,10.0,M,0.0,M,,*02
$GPRMC,221824,A,2459.7418,N,12117.6832,E,10.7,180.0,141123,,*65
$GPGGA,221824,2459.7418,N,12117.6832,E,1,08,3.5,10.0,M,0.0,M,,*0E
$GPRMC,221825,A,2459.7343,N,12117.6713,E,11.9,180.0,141123,,*6E
$GPGGA,221825,2459.7343,N,12117.6713,E,1,08,3.5,10.0,M,0.0,M,,*0A
$GPRMC,221826,A,2459.7328,N,12117.6835,E,14.3,180.0,141123,,*64
$GPGGA,221826,2459.7328,N,12117.6835,E,1,08,3.5,10.0,M,0.0,M,,*0F
$GPRMC,221827,A,2459.7185,N,12117.6952,E,15.2,180.0,141123,,*60
$GPGGA,221827,2459.7185,N,12117.6952,E,1,08,3.5,10.0,M,0.0,M,,*0B
$GPRMC,221828,A,2459.7212,N,12117.7042,E,13.4,180.0,141123,,*6B
$GPGGA,221828,2459.7212,N,12117.7042,E,1,08,3.5,10.0,M,0.0,M,,*00
$GPRMC,221829,A,2459.7181,N,12117.6937,E,15.7,180.0,141123,,*6C
$GPGGA,221829,2459.7181,N,12117.6937,E,1,08,3.5,10.0,M,0.0,M,,*02
$GPRMC,221830,A,2459.7151,N,12117.6969,E,12.4,180.0,141123,,*66
$GPGGA,221830,2459.7151,N,12117.6969,E,1,08,3.5,10.0,M,0.0,M,,*0C
$GPRMC,221831,A,2459.7034,N,12117.6894,E,14.7,180.0,141123,,*63
$GPGGA,221831,2459.7034,N,12117.6894,E,1,08,3.5,10.0,M,0.0,M,,*0C
$GPRMC,221832,A,2459.6936,N,12117.6927,E,15.0,180.0,141123,,*65
$GPGGA,221832,2459.6936,N,12117.6927,E,1,08,3.5,10.0,M,0.0,M,,*0C
$GPRMC,221833,A,2459.6965,N,12117.6819,E,11.5,180.0,141123,,*6F
$GPGGA,221833,2459.6965,N,12117.6819,E,1,08,3.5,10.0,M,0.0,M,,*07
$GPRMC,221834,A,2459.7006,N,12117.6979,E,13.9,180.0,141123,,*6C
$GPGGA,221834,2459.7006,N,12117.6979,E,1,08,3.5,10.0,M,0.0,M,,*0A
$GPRMC,221835,A,2459.7018,N,12117.6919,E,15.0,180.0,141123,,*6B
$GPGGA,221835,2459.7018,N,12117.6919,E,1,08,3.5,10.0,M,0.0,M,,*02
$GPRMC,221836,A,2459.7053,N,12117.6883,E,17.3,180.0,141123,,*64
$GPGGA,221836,2459.7053,N,12117.6883,E,1,08,3.5,10.0,M,0.0,M,,*0C
$GPRMC,221837,A,2459.7027,N,12117.6971,E,13.8,180.0,141123,,*65
$GPGGA,221837,2459.7027,N,12117.6971,E,1,08,3.5,10.0,M,0.0,M,,*02
$GPRMC,221838,A,2459.6866,N,12117.7017,E,15.0,180.0,141123,,*60
$GPGGA,221838,2459.6866,N,12117.7017,E,1,08,3.5,10.0,M,0.0,M,,*09
$GPRMC,221839,A,2459.6769,N,12117.6909,E,16.5,180.0,141123,,*60
$GPGGA,221839,2459.6769,N,12117.6909,E,1,08,3.5,10.0,M,0.0,M,,*0F
$GPRMC,221840,A,2459.6774,N,12117.7005,E,13.0,180.0,141123,,*66
$GPGGA,221840,2459.6774,N,12117.7005,E,1,08,3.5,10.0,M,0.0,M,,*09
$GPRMC,221841,A,2459.6703,N,12117.7045,E,11.6,180.0,141123,,*67
$GPGGA,221841,2459.6703,N,12117.7045,E,1,08,3.5,10.0,M,0.0,M,,*0C
$GPRMC,221842,A,2459.6658,N,12117.6976,E,13.9,180.0,141123,,*6E
$GPGGA,221842,2459.6658,N,12117.6976,E,1,08,3.5,10.0,M,0.0,M,,*08
$GPRMC,221843,A,2459.6738,N,12117.6989,E,8.4,85.1,141123,,*6A
$GPGGA,221843,2459.6738,N,12117.6989,E,1,08,3.5,10.0,M,0.0,M,,*0E
$GPRMC,221844,A,2459.6778,N,12117.7078,E,10.7,85.1,141123,,*55
$GPGGA,221844,2459.6778,N,12117.7078,E,1,08,3.5,10.0,M,0.0,M,,*0B
$GPRMC,221845,A,2459.6767,N,12117.6982,E,13.0,85.1,141123,,*53
$GPGGA,221845,2459.6767,N,12117.6982,E,1,08,3.5,10.0,M,0.0,M,,*09
$GPRMC,221846,A,2459.6688,N,12117.7074,E,15.4,85.1,141123,,*53
$GPGGA,221846,2459.6688,N,12117.7074,E,1,08,3.5,10.0,M,0.0,M,,*0B
$GPRMC,221847,A,2459.6641,N,12117.7102,E,16.7,85.1,141123,,*57
$GPGGA,221847,2459.6641,N,12117.7102,E,1,08,3.5,10.0,M,0.0,M,,*0F
$GPRMC,221848,A,2459.6635,N,12117.7260,E,16.5,85.1,141123,,*5E
$GPGGA,221848,2459.6635,N,12117.7260,E,1,08,3.5,10.0,M,0.0,M,,*04
$GPRMC,221849,A,2459.6737,N,12117.7307,E,16.1,85.1,141123,,*58
$GPGGA,221849,2459.6737,N,12117.7307,E,1,08,3.5,10.0,M,0.0,M,,*06
$GPRMC,221850,A,2459.6779,N,12117.7386,E,14.0,85.1,141123,,*50
$GPGGA,221850,2459.6779,N,12117.7386,E,1,08,3.5,10.0,M,0.0,M,,*0D
$GPRMC,221851,A,2459.6859,N,12117.7412,E,14.1,85.1,141123,,*57
$GPGGA,221851,2459.6859,N,12117.7412,E,1,08,3.5,10.0,M,0.0,M,,*0B
$GPRMC,221852,A,2459.6789,N,12117.7436,E,11.8,85.1,141123,,*5C
$GPGGA,221852,2459.6789,N,12117.7436,E,1,08,3.5,10.0,M,0.0,M,,*0C
$GPRMC,221853,A,2459.6702,N,12117.7465,E,14.1,85.1,141123,,*54
$GPGGA,221853,2459.6702,N,12117.7465,E,1,08,3.5,10.0,M,0.0,M,,*08
$GPRMC,221854,A,2459.6663,N,12117.7604,E,16.5,85.1,141123,,*56
$GPGGA,221854,2459.6663,N,12117.7604,E,1,08,3.5,10.0,M,0.0,M,,*0C
$GPRMC,221855,A,2459.6634,N,12117.7558,E,13.8,85.1,141123,,*57
$GPGGA,221855,2459.6634,N,12117.7558,E,1,08,3.5,10.0,M,0.0,M,,*05
$GPRMC,221856,A,2459.6564,N,12117.7563,E,11.3,85.1,141123,,*53
$GPGGA,221856,2459.6564,N,12117.7563,E,1,08,3.5,10.0,M,0.0,M,,*08
$GPRMC,221857,A,2459.6615,N,12117.7669,E,13.7,85.1,141123,,*58
$GPGGA,221857,2459.6615,N,12117.7669,E,1,08,3.5,10.0,M,0.0,M,,*05
$GPRMC,221858,A,2459.6595,N,12117.7751,E,16.0,85.1,141123,,*54
$GPGGA,221858,2459.6595,N,12117.7751,E,1,08,3.5,10.0,M,0.0,M,,*0B
$GPRMC,221859,A,2459.6615,N,12117.7796,E,15.0,85.1,141123,,*56
$GPGGA,221859,2459.6615,N,12117.7796,E,1,08,3.5,10.0,M,0.0,M,,*0A
$GPRMC,221900,A,2459.6607,N,12117.7829,E,17.0,85.1,141123,,*51
$GPGGA,221900,2459.6607,N,12117.7829,E,1,08,3.5,10.0,M,0.0,M,,*0F
$GPRMC,221901,A,2459.6659,N,12117.7953,E,18.8,85.1,141123,,*50
$GPGGA,221901,2459.6659,N,12117.7953,E,1,08,3.5,10.0,M,0.0,M,,*09
$GPRMC,221902,A,2459.6747,N,12117.8007,E,17.5,85.1,141123,,*58
$GPGGA,221902,2459.6747,N,12117.8007,E,1,08,3.5,10.0,M,0.0,M,,*03
$GPRMC,221903,A,2459.6751,N,12117.7950,E,19.8,85.1,141123,,*59
$GPGGA,221903,2459.6751,N,12117.7950,E,1,08,3.5,10.0,M,0.0,M,,*01
$GPRMC,221904,A,2459.6805,N,12117.8032,E,16.6,85.1,141123,,*53
$GPGGA,221904,2459.6805,N,12117.8032,E,1,08,3.5,10.0,M,0.0,M,,*0A
$GPRMC,221905,A,2459.6762,N,12117.8072,E,13.9,85.1,141123,,*52
$GPGGA,221905,2459.6762,N,12117.8072,E,1,08,3.5,10.0,M,0.0,M,,*01
$GPRMC,221906,A,2459.6745,N,12117.8195,E,12.5,85.1,141123,,*51
$GPGGA,221906,2459.6745,N,12117.8195,E,1,08,3.5,10.0,M,0.0,M,,*0F
$GPRMC,221907,A,2459.6685,N,12117.8204,E,13.1,85.1,141123,,*53
$GPGGA,221907,2459.6685,N,12117.8204,E,1,08,3.5,10.0,M,0.0,M,,*08
$GPRMC,221908,A,2459.6656,N,12117.8259,E,13.9,85.1,141123,,*52
$GPGGA,221908,2459.6656,N,12117.8259,E,1,08,3.5,10.0,M,0.0,M,,*01
$GPRMC,221909,A,2459.6513,N,12117.8338,E,16.2,85.1,141123,,*59
$GPGGA,221909,2459.6513,N,12117.8338,E,1,08,3.5,10.0,M,0.0,M,,*04
$GPRMC,221910,A,2459.6540,N,12117.8302,E,17.1,85.1,141123,,*5C
$GPGGA,221910,2459.6540,N,12117.8302,E,1,08,3.5,10.0,M,0.0,M,,*03
$GPRMC,221911,A,2459.6634,N,12117.8349,E,14.9,85.1,141123,,*59
$GPGGA,221911,2459.6634,N,12117.8349,E,1,08,3.5,10.0,M,0.0,M,,*0D
$GPRMC,221912,A,2459.6590,N,12117.8442,E,17.2,85.1,141123,,*53
$GPGGA,221912,2459.6590,N,12117.8442,E,1,08,3.5,10.0,M,0.0,M,,*0F
$GPRMC,221913,A,2459.6706,N,12117.8466,E,13.7,85.1,141123,,*58
$GPGGA,221913,2459.6706,N,12117.8466,E,1,08,3.5,10.0,M,0.0,M,,*05
$GPRMC,221914,A,2459.6788,N,12117.8459,E,16.1,85.1,141123,,*56
$GPGGA,221914,2459.6788,N,12117.8459,E,1,08,3.5,10.0,M,0.0,M,,*08
$GPRMC,221915,A,2459.6814,N,12117.8599,E,18.4,85.1,141123,,*5B
$GPGGA,221915,2459.6814,N,12117.8599,E,1,08,3.5,10.0,M,0.0,M,,*0E
$GPRMC,221916,A,2459.6933,N,12117.8641,E,14.9,85.1,141123,,*5B
$GPGGA,221916,2459.6933,N,12117.8641,E,1,08,3.5,10.0,M,0.0,M,,*0F
$GPRMC,221917,A,2459.6858,N,12117.8587,E,17.2,85.1,141123,,*57
$GPGGA,221917,2459.6858,N,12117.8587,E,1,08,3.5,10.0,M,0.0,M,,*0B
$GPRMC,221918,A,2459.6821,N,12117.8702,E,14.3,85.1,141123,,*5B
$GPGGA,221918,2459.6821,N,12117.8702,E,1,08,3.5,10.0,M,0.0,M,,*05
$GPRMC,221919,A,2459.6765,N,12117.8686,E,11.6,85.1,141123,,*58
$GPGGA,221919,2459.6765,N,12117.8686,E,1,08,3.5,10.0,M,0.0,M,,*06
$GPRMC,221920,A,2459.6806,N,12117.8835,E,13.9,85.1,141123,,*53
$GPGGA,221920,2459.6806,N,12117.8835,E,1,08,3.5,10.0,M,0.0,M,,*00
$GPRMC,221921,A,2459.6762,N,12117.8698,E,16.3,85.1,141123,,*59
$GPGGA,221921,2459.6762,N,12117.8698,E,1,08,3.5,10.0,M,0.0,M,,*05
$GPRMC,221922,A,2459.6838,N,12117.8806,E,12.8,85.1,141123,,*5C
$GPGGA,221922,2459.6838,N,12117.8806,E,1,08,3.5,10.0,M,0.0,M,,*0F
$GPRMC,221923,A,2459.6817,N,12117.8863,E,15.1,85.1,141123,,*5D
$GPGGA,221923,2459.6817,N,12117.8863,E,1,08,3.5,10.0,M,0.0,M,,*00
$GPRMC,221924,A,2459.6785,N,12117.9005,E,15.1,85.1,141123,,*57
$GPGGA,221924,2459.6785,N,12117.9005,E,1,08,3.5,10.0,M,0.0,M,,*0A
$GPRMC,221925,A,2459.6700,N,12117.8948,E,14.7,85.1,141123,,*5D
$GPGGA,221925,2459.6700,N,12117.8948,E,1,08,3.5,10.0,M,0.0,M,,*07
$GPRMC,221926,A,2459.6690,N,12117.9133,E,14.3,85.1,141123,,*57
$GPGGA,221926,2459.6690,N,12117.9133,E,1,08,3.5,10.0,M,0.0,M,,*09
$GPRMC,221927,A,2459.6747,N,12117.9103,E,13.9,85.1,141123,,*53
$GPGGA,221927,2459.6747,N,12117.9103,E,1,08,3.5,10.0,M,0.0,M,,*00
$GPRMC,221928,A,2459.6620,N,12117.9049,E,13.5,85.1,141123,,*5F
$GPGGA,221928,2459.6620,N,12117.9049,E,1,08,3.5,10.0,M,0.0,M,,*00
$GPRMC,221929,A,2459.6686,N,12117.9106,E,13.2,85.1,141123,,*5F
$GPGGA,221929,2459.6686,N,12117.9106,E,1,08,3.5,10.0,M,0.0,M,,*07
$GPRMC,221930,A,2459.6773,N,12117.9033,E,12.8,85.1,141123,,*50
$GPGGA,221930,2459.6773,N,12117.9033,E,1,08,3.5,10.0,M,0.0,M,,*03
$GPRMC,221931,A,2459.6812,N,12117.9154,E,12.5,85.1,141123,,*54
$GPGGA,221931,2459.6812,N,12117.9154,E,1,08,3.5,10.0,M,0.0,M,,*0A
$GPRMC,221932,A,2459.6763,N,12117.9220,E,12.2,85.1,141123,,*59
$GPGGA,221932,2459.6763,N,12117.9220,E,1,08,3.5,10.0,M,0.0,M,,*00
$GPRMC,221933,A,2459.6744,N,12117.9213,E,11.9,85.1,141123,,*55
$GPGGA,221933,2459.6744,N,12117.9213,E,1,08,3.5,10.0,M,0.0,M,,*04
$GPRMC,221934,A,2459.6805,N,12117.9349,E,11.6,85.1,141123,,*59
$GPGGA,221934,2459.6805,N,12117.9349,E,1,08,3.5,10.0,M,0.0,M,,*07
$GPRMC,221935,A,2459.6747,N,12117.9567,E,11.3,85.1,141123,,*5E
$GPGGA,221935,2459.6747,N,12117.9567,E,1,08,3.5,10.0,M,0.0,M,,*05
$GPRMC,221936,A,2459.6761,N,12117.9667,E,11.0,85.1,141123,,*59
$GPGGA,221936,2459.6761,N,12117.9667,E,1,08,3.5,10.0,M,0.0,M,,*01
$GPRMC,221937,A,2459.6911,N,12117.9706,E,10.7,85.1,141123,,*51
$GPGGA,221937,2459.6911,N,12117.9706,E,1,08,3.5,10.0,M,0.0,M,,*0F
$GPRMC,221938,A,2459.6904,N,12117.9592,E,10.4,85.1,141123,,*56
$GPGGA,221938,2459.6904,N,12117.9592,E,1,08,3.5,10.0,M,0.0,M,,*0B
$GPRMC,221939,A,2459.6908,N,12117.9721,E,10.1,85.1,141123,,*54
$GPGGA,221939,2459.6908,N,12117.9721,E,1,08,3.5,10.0,M,0.0,M,,*0C
$GPRMC,221940,A,2459.6910,N,12117.9765,E,9.9,85.1,141123,,*63
$GPGGA,221940,2459.6910,N,12117.9765,E,1,08,3.5,10.0,M,0.0,M,,*0B
$GPRMC,221941,A,2459.6714,N,12117.9759,E,9.6,85.1,141123,,*68
$GPGGA,221941,2459.6714,N,12117.9759,E,1,08,3.5,10.0,M,0.0,M,,*0F
$GPRMC,221942,A,2459.6840,N,12117.9843,E,9.3,85.1,141123,,*64
$GPGGA,221942,2459.6840,N,12117.9843,E,1,08,3.5,10.0,M,0.0,M,,*06
$GPRMC,221943,A,2459.6947,N,12117.9734,E,9.1,85.1,141123,,*6E
$GPGGA,221943,2459.6947,N,12117.9734,E,1,08,3.5,10.0,M,0.0,M,,*0E
$GPRMC,221944,A,2459.6857,N,12117.9697,E,8.9,85.1,141123,,*68
$GPGGA,221944,2459.6857,N,12117.9697,E,1,08,3.5,10.0,M,0.0,M,,*01
$GPRMC,221945,A,2459.6835,N,12117.9717,E,8.6,85.1,141123,,*6B
$GPGGA,221945,2459.6835,N,12117.9717,E,1,08,3.5,10.0,M,0.0,M,,*0D
$GPRMC,221946,A,2459.6726,N,12117.9742,E,8.4,85.1,141123,,*67
$GPGGA,221946,2459.6726,N,12117.9742,E,1,08,3.5,10.0,M,0.0,M,,*03
$GPRMC,221947,A,2459.6723,N,12117.9719,E,8.2,85.1,141123,,*6B
$GPGGA,221947,2459.6723,N,12117.9719,E,1,08,3.5,10.0,M,0.0,M,,*09
$GPRMC,221948,A,2459.6717,N,12117.9720,E,8.0,85.1,141123,,*6B
$GPGGA,221948,2459.6717,N,12117.9720,E,1,08,3.5,10.0,M,0.0,M,,*0B
$GPRMC,221949,A,2459.6788,N,12117.9806,E,7.8,85.1,141123,,*60
$GPGGA,221949,2459.6788,N,12117.9806,E,1,08,3.5,10.0,M,0.0,M,,*07
$GPRMC,221950,A,2459.6822,N,12117.9752,E,7.6,85.1,141123,,*67
$GPGGA,221950,2459.6822,N,12117.9752,E,1,08,3.5,10.0,M,0.0,M,,*0E
$GPRMC,221951,A,2459.6789,N,12117.9819,E,7.4,85.1,141123,,*6A
$GPGGA,221951,2459.6789,N,12117.9819,E,1,08,3.5,10.0,M,0.0,M,,*01
$GPRMC,221952,A,2459.6841,N,12117.9887,E,7.2,85.1,141123,,*63
$GPGGA,221952,2459.6841,N,12117.9887,E,1,08,3.5,10.0,M,0.0,M,,*0E
$GPRMC,221953,A,2459.6730,N,12117.9916,E,7.0,85.1,141123,,*60
$GPGGA,221953,2459.6730,N,12117.9916,E,1,08,3.5,10.0,M,0.0,M,,*0F
$GPRMC,221954,A,2459.6751,N,12117.9938,E,6.8,85.1,141123,,*65
$GPGGA,221954,2459.6751,N,12117.9938,E,1,08,3.5,10.0,M,0.0,M,,*03
$GPRMC,221955,A,2459.6829,N,12118.0080,E,6.6,85.1,141123,,*66
$GPGGA,221955,2459.6829,N,12118.0080,E,1,08,3.5,10.0,M,0.0,M,,*0E
$GPRMC,221956,A,2459.6781,N,12117.9994,E,6.5,85.1,141123,,*61
$GPGGA,221956,2459.6781,N,12117.9994,E,1,08,3.5,10.0,M,0.0,M,,*0A
$GPRMC,221957,A,2459.6795,N,12117.9949,E,6.3,85.1,141123,,*63
$GPGGA,221957,2459.6795,N,12117.9949,E,1,08,3.5,10.0,M,0.0,M,,*0E
$GPRMC,221958,A,2459.6851,N,12117.9949,E,6.1,85.1,141123,,*69
$GPGGA,221958,2459.6851,N,12117.9949,E,1,08,3.5,10.0,M,0.0,M,,*06
$GPRMC,221959,A,2459.6910,N,12118.0049,E,6.0,85.1,141123,,*62
$GPGGA,221959,2459.6910,N,12118.0049,E,1,08,3.5,10.0,M,0.0,M,,*0C
$GPRMC,222000,A,2459.6848,N,12118.0157,E,5.8,85.1,141123,,*6D
$GPGGA,222000,2459.6848,N,12118.0157,E,1,08,3.5,10.0,M,0.0,M,,*08
$GPRMC,222001,A,2459.6965,N,12118.0210,E,5.7,85.1,141123,,*6D
$GPGGA,222001,2459.6965,N,12118.0210,E,1,08,3.5,10.0,M,0.0,M,,*07
$GPRMC,222002,A,2459.6885,N,12118.0246,E,5.5,85.1,141123,,*60
$GPGGA,222002,2459.6885,N,12118.0246,E,1,08,3.5,10.0,M,0.0,M,,*08
$GPRMC,222003,A,2459.6928,N,12118.0258,E,5.4,85.1,141123,,*69
$GPGGA,222003,2459.6928,N,12118.0258,E,1,08,3.5,10.0,M,0.0,M,,*00
$GPRMC,222004,A,2459.6857,N,12118.0131,E,5.2,85.1,141123,,*6D
$GPGGA,222004,2459.6857,N,12118.0131,E,1,08,3.5,10.0,M,0.0,M,,*02
$GPRMC,222005,A,2459.6894,N,12118.0179,E,5.1,85.1,141123,,*6C
$GPGGA,222005,2459.6894,N,12118.0179,E,1,08,3.5,10.0,M,0.0,M,,*00
$GPRMC,222006,A,2459.6794,N,12118.0298,E,5.0,85.1,141123,,*6D
$GPGGA,222006,2459.6794,N,12118.0298,E,1,08,3.5,10.0,M,0.0,M,,*00
$GPRMC,222007,A,2459.6877,N,12118.0265,E,4.8,85.1,141123,,*65
$GPGGA,222007,2459.6877,N,12118.0265,E,1,08,3.5,10.0,M,0.0,M,,*01
$GPRMC,222008,A,2459.6796,N,12118.0252,E,4.7,85.1,141123,,*61
$GPGGA,222008,2459.6796,N,12118.0252,E,1,08,3.5,10.0,M,0.0,M,,*0A
$GPRMC,222009,A,2459.6750,N,12118.0217,E,4.6,85.1,141123,,*6A
$GPGGA,222009,2459.6750,N,12118.0217,E,1,08,3.5,10.0,M,0.0,M,,*00
$GPRMC,222010,A,2459.6754,N,12118.0194,E,0.0,63.9,141123,,*6C
$GPGGA,222010,2459.6754,N,12118.0194,E,1,08,3.5,10.0,M,0.0,M,,*04
$GPRMC,222011,A,2459.6793,N,12118.0323,E,0.0,63.9,141123,,*68
$GPGGA,222011,2459.6793,N,12118.0323,E,1,08,3.5,10.0,M,0.0,M,,*00
$GPRMC,222012,A,2459.6868,N,12118.0368,E,0.0,63.9,141123,,*6F
$GPGGA,222012,2459.6868,N,12118.0368,E,1,08,3.5,10.0,M,0.0,M,,*07
$GPRMC,222013,A,2459.6818,N,12118.0310,E,0.0,63.9,141123,,*66
$GPGGA,222013,2459.6818,N,12118.0310,E,1,08,3.5,10.0,M,0.0,M,,*0E
$GPRMC,222014,A,2459.6767,N,12118.0170,E,0.0,63.9,141123,,*62
$GPGGA,222014,2459.6767,N,12118.0170,E,1,08,3.5,10.0,M,0.0,M,,*0A
$GPRMC,222015,A,2459.6828,N,12118.0265,E,0.0,63.9,141123,,*60
$GPGGA,222015,2459.6828,N,12118.0265,E,1,08,3.5,10.0,M,0.0,M,,*08
$GPRMC,222016,A,2459.6760,N,12118.0385,E,0.0,63.9,141123,,*6F
$GPGGA,222016,2459.6760,N,12118.0385,E,1,08,3.5,10.0,M,0.0,M,,*07
$GPRMC,222017,A,2459.6799,N,12118.0445,E,0.0,63.9,141123,,*63
$GPGGA,222017,2459.6799,N,12118.0445,E,1,08,3.5,10.0,M,0.0,M,,*0B
$GPRMC,222018,A,2459.6692,N,12118.0305,E,0.0,63.9,141123,,*65
$GPGGA,222018,2459.6692,N,12118.0305,E,1,08,3.5,10.0,M,0.0,M,,*0D
$GPRMC,222019,A,2459.6881,N,12118.0251,E,0.0,63.9,141123,,*68
$GPGGA,222019,2459.6881,N,12118.0251,E,1,08,3.5,10.0,M,0.0,M,,*00
$GPRMC,222020,A,2459.6834,N,12118.0129,E,0.0,63.9,141123,,*60
$GPGGA,222020,2459.6834,N,12118.0129,E,1,08,3.5,10.0,M,0.0,M,,*08
$GPRMC,222021,A,2459.6936,N,12118.0023,E,0.0,63.9,141123,,*69
$GPGGA,222021,2459.6936,N,12118.0023,E,1,08,3.5,10.0,M,0.0,M,,*01
$GPRMC,222022,A,2459.6914,N,12118.0147,E,0.0,63.9,141123,,*69
$GPGGA,222022,2459.6914,N,12118.0147,E,1,08,3.5,10.0,M,0.0,M,,*01
$GPRMC,222023,A,2459.6989,N,12118.0116,E,0.0,63.9,141123,,*68
$GPGGA,222023,2459.6989,N,12118.0116,E,1,08,3.5,10.0,M,0.0,M,,*00
$GPRMC,222024,A,2459.6989,N,12118.0172,E,8.4,63.9,141123,,*61
$GPGGA,222024,2459.6989,N,12118.0172,E,1,08,3.5,10.0,M,0.0,M,,*05
$GPRMC,222025,A,2459.6928,N,12118.0120,E,10.7,63.9,141123,,*56
$GPGGA,222025,2459.6928,N,12118.0120,E,1,08,3.5,10.0,M,0.0,M,,*08
$GPRMC,222026,A,2459.6940,N,12118.0175,E,13.0,63.9,141123,,*5F
$GPGGA,222026,2459.6940,N,12118.0175,E,1,08,3.5,10.0,M,0.0,M,,*05
$GPRMC,222027,A,2459.6958,N,12118.0127,E,15.4,63.9,141123,,*52
$GPGGA,222027,2459.6958,N,12118.0127,E,1,08,3.5,10.0,M,0.0,M,,*0A
$GPRMC,222028,A,2459.6951,N,12118.0229,E,8.4,78.7,141123,,*61
$GPGGA,222028,2459.6951,N,12118.0229,E,1,08,3.5,10.0,M,0.0,M,,*01
$GPRMC,222029,A,2459.7002,N,12118.0088,E,10.7,78.7,141123,,*5D
$GPGGA,222029,2459.7002,N,12118.0088,E,1,08,3.5,10.0,M,0.0,M,,*07
$GPRMC,222030,A,2459.6930,N,12118.0174,E,13.0,78.7,141123,,*5A
$GPGGA,222030,2459.6930,N,12118.0174,E,1,08,3.5,10.0,M,0.0,M,,*04
$GPRMC,222031,A,2459.6653,N,12118.0012,E,15.4,78.7,141123,,*52
$GPGGA,222031,2459.6653,N,12118.0012,E,1,08,3.5,10.0,M,0.0,M,,*0E
$GPRMC,222032,A,2459.6770,N,12118.0065,E,8.4,94.9,141123,,*61
$GPGGA,222032,2459.6770,N,12118.0065,E,1,08,3.5,10.0,M,0.0,M,,*0D
$GPRMC,222033,A,2459.6880,N,12118.0154,E,10.7,94.9,141123,,*59
$GPGGA,222033,2459.6880,N,12118.0154,E,1,08,3.5,10.0,M,0.0,M,,*0F
$GPRMC,222034,A,2459.6987,N,12118.0361,E,13.0,94.9,141123,,*58
$GPGGA,222034,2459.6987,N,12118.0361,E,1,08,3.5,10.0,M,0.0,M,,*0A
$GPRMC,222035,A,2459.6891,N,12118.0411,E,15.3,94.9,141123,,*5A
$GPGGA,222035,2459.6891,N,12118.0411,E,1,08,3.5,10.0,M,0.0,M,,*0D
$GPRMC,222036,A,2459.6914,N,12118.0444,E,14.3,94.9,141123,,*54
$GPGGA,222036,2459.6914,N,12118.0444,E,1,08,3.5,10.0,M,0.0,M,,*02
$GPRMC,222037,A,2459.6831,N,12118.0659,E,8.4,117.5,141123,,*51
$GPGGA,222037,2459.6831,N,12118.0659,E,1,08,3.5,10.0,M,0.0,M,,*0B
$GPRMC,222038,A,2459.6878,N,12118.0808,E,10.7,117.5,141123,,*63
$GPGGA,222038,2459.6878,N,12118.0808,E,1,08,3.5,10.0,M,0.0,M,,*03
$GPRMC,222039,A,2459.6769,N,12118.0820,E,13.0,117.5,141123,,*63
$GPGGA,222039,2459.6769,N,12118.0820,E,1,08,3.5,10.0,M,0.0,M,,*07
$GPRMC,222040,A,2459.6782,N,12118.0781,E,14.1,117.5,141123,,*6A
$GPGGA,222040,2459.6782,N,12118.0781,E,1,08,3.5,10.0,M,0.0,M,,*08
$GPRMC,222041,A,2459.6861,N,12118.0719,E,10.6,117.5,141123,,*6B
$GPGGA,222041,2459.6861,N,12118.0719,E,1,08,3.5,10.0,M,0.0,M,,*0A
$GPRMC,222042,A,2459.6865,N,12118.0912,E,12.9,117.5,141123,,*64
$GPGGA,222042,2459.6865,N,12118.0912,E,1,08,3.5,10.0,M,0.0,M,,*08
$GPRMC,222043,A,2459.6923,N,12118.0974,E,12.9,117.5,141123,,*66
$GPGGA,222043,2459.6923,N,12118.0974,E,1,08,3.5,10.0,M,0.0,M,,*0A
$GPRMC,222044,A,2459.6947,N,12118.0898,E,13.2,117.5,141123,,*6A
$GPGGA,222044,2459.6947,N,12118.0898,E,1,08,3.5,10.0,M,0.0,M,,*0C
$GPRMC,222045,A,2459.6813,N,12118.0901,E,10.9,117.5,141123,,*62
$GPGGA,222045,2459.6813,N,12118.0901,E,1,08,3.5,10.0,M,0.0,M,,*0C
$GPRMC,222046,A,2459.6784,N,12118.0949,E,13.2,117.5,141123,,*64
$GPGGA,222046,2459.6784,N,12118.0949,E,1,08,3.5,10.0,M,0.0,M,,*02
$GPRMC,222047,A,2459.6718,N,12118.1038,E,15.6,117.5,141123,,*6C
$GPGGA,222047,2459.6718,N,12118.1038,E,1,08,3.5,10.0,M,0.0,M,,*08
$GPRMC,222048,A,2459.6657,N,12118.0941,E,13.9,117.5,141123,,*66
$GPGGA,222048,2459.6657,N,12118.0941,E,1,08,3.5,10.0,M,0.0,M,,*0B
$GPRMC,222049,A,2459.6770,N,12118.0839,E,16.3,117.5,141123,,*62
$GPGGA,222049,2459.6770,N,12118.0839,E,1,08,3.5,10.0,M,0.0,M,,*00
$GPRMC,222050,A,2459.6737,N,12118.0870,E,12.8,117.5,141123,,*6B
$GPGGA,222050,2459.6737,N,12118.0870,E,1,08,3.5,10.0,M,0.0,M,,*06
$GPRMC,222051,A,2459.6799,N,12118.0881,E,15.1,117.5,141123,,*6E
$GPGGA,222051,2459.6799,N,12118.0881,E,1,08,3.5,10.0,M,0.0,M,,*0D
$GPRMC,222052,A,2459.6804,N,12118.0943,E,15.1,117.5,141123,,*69
$GPGGA,222052,2459.6804,N,12118.0943,E,1,08,3.5,10.0,M,0.0,M,,*0A
$GPRMC,222053,A,2459.6758,N,12118.1021,E,15.6,117.5,141123,,*65
$GPGGA,222053,2459.6758,N,12118.1021,E,1,08,3.5,10.0,M,0.0,M,,*01
$GPRMC,222054,A,2459.6723,N,12118.1146,E,17.5,117.5,141123,,*6F
$GPGGA,222054,2459.6723,N,12118.1146,E,1,08,3.5,10.0,M,0.0,M,,*0A
$GPRMC,222055,A,2459.6566,N,12118.1126,E,15.4,117.5,141123,,*68
$GPGGA,222055,2459.6566,N,12118.1126,E,1,08,3.5,10.0,M,0.0,M,,*0E
$GPRMC,222056,A,2459.6381,N,12118.1044,E,16.6,117.5,141123,,*60
$GPGGA,222056,2459.6381,N,12118.1044,E,1,08,3.5,10.0,M,0.0,M,,*07
$GPRMC,222057,A,2459.6537,N,12118.1147,E,8.4,139.0,141123,,*5C
$GPGGA,222057,2459.6537,N,12118.1147,E,1,08,3.5,10.0,M,0.0,M,,*0F
$GPRMC,222058,A,2459.6397,N,12118.1239,E,10.7,139.0,141123,,*6F
$GPGGA,222058,2459.6397,N,12118.1239,E,1,08,3.5,10.0,M,0.0,M,,*06
$GPRMC,222059,A,2459.6435,N,12118.1378,E,13.0,139.0,141123,,*61
$GPGGA,222059,2459.6435,N,12118.1378,E,1,08,3.5,10.0,M,0.0,M,,*0C
$GPRMC,222100,A,2459.6569,N,12118.1437,E,15.4,139.0,141123,,*6A
$GPGGA,222100,2459.6569,N,12118.1437,E,1,08,3.5,10.0,M,0.0,M,,*05
$GPRMC,222101,A,2459.6563,N,12118.1296,E,15.6,139.0,141123,,*6E
$GPGGA,222101,2459.6563,N,12118.1296,E,1,08,3.5,10.0,M,0.0,M,,*03
$GPRMC,222102,A,2459.6545,N,12118.1370,E,18.0,139.0,141123,,*6B
$GPGGA,222102,2459.6545,N,12118.1370,E,1,08,3.5,10.0,M,0.0,M,,*0D
$GPRMC,222103,A,2459.6591,N,12118.1310,E,8.4,172.8,141123,,*57
