$GPRMC,221320,A,2500.2562,N,12117.1883,E,8.4,350.5,141123,,*14
$GPGGA,221320,2500.2562,N,12117.1883,E,1,08,3.5,10.0,M,0.0,M,,*4F
$GPRMC,221321,A,2500.2567,N,12117.1937,E,10.7,350.5,141123,,*24
$GPGGA,221321,2500.2567,N,12117.1937,E,1,08,3.5,10.0,M,0.0,M,,*45
$GPRMC,221322,A,2500.2512,N,12117.1866,E,9.5,350.5,141123,,*1A
$GPGGA,221322,2500.2512,N,12117.1866,E,1,08,3.5,10.0,M,0.0,M,,*41
$GPRMC,221323,A,2500.2556,N,12117.1835,E,11.9,350.5,141123,,*28
$GPGGA,221323,2500.2556,N,12117.1835,E,1,08,3.5,10.0,M,0.0,M,,*46
$GPRMC,221324,A,2500.2636,N,12117.1850,E,14.2,350.5,141123,,*27
$GPGGA,221324,2500.2636,N,12117.1850,E,1,08,3.5,10.0,M,0.0,M,,*47
$GPRMC,221325,A,2500.2839,N,12117.1899,E,16.5,350.5,141123,,*27
$GPGGA,221325,2500.2839,N,12117.1899,E,1,08,3.5,10.0,M,0.0,M,,*42
$GPRMC,221326,A,2500.2887,N,12117.1765,E,18.9,350.5,141123,,*2F
$GPGGA,221326,2500.2887,N,12117.1765,E,1,08,3.5,10.0,M,0.0,M,,*48
$GPRMC,221327,A,2500.2882,N,12117.1703,E,15.4,350.5,141123,,*2B
$GPGGA,221327,2500.2882,N,12117.1703,E,1,08,3.5,10.0,M,0.0,M,,*4C
$GPRMC,221328,A,2500.2886,N,12117.1647,E,15.7,350.5,141123,,*22
$GPGGA,221328,2500.2886,N,12117.1647,E,1,08,3.5,10.0,M,0.0,M,,*46
$GPRMC,221329,A,2500.3020,N,12117.1673,E,12.6,350.5,141123,,*27
$GPGGA,221329,2500.3020,N,12117.1673,E,1,08,3.5,10.0,M,0.0,M,,*45
$GPRMC,221330,A,2500.3077,N,12117.1675,E,13.5,350.5,141123,,*29
$GPGGA,221330,2500.3077,N,12117.1675,E,1,08,3.5,10.0,M,0.0,M,,*49
$GPRMC,221331,A,2500.3104,N,12117.1564,E,15.8,350.5,141123,,*25
$GPGGA,221331,2500.3104,N,12117.1564,E,1,08,3.5,10.0,M,0.0,M,,*4E
$GPRMC,221332,A,2500.2958,N,12117.1692,E,18.1,350.5,141123,,*28
$GPGGA,221332,2500.2958,N,12117.1692,E,1,08,3.5,10.0,M,0.0,M,,*47
$GPRMC,221333,A,2500.3047,N,12117.1718,E,17.8,350.5,141123,,*2A
$GPGGA,221333,2500.3047,N,12117.1718,E,1,08,3.5,10.0,M,0.0,M,,*43
$GPRMC,221334,A,2500.3132,N,12117.1746,E,14.3,350.5,141123,,*2D
$GPGGA,221334,2500.3132,N,12117.1746,E,1,08,3.5,10.0,M,0.0,M,,*4C
$GPRMC,221335,A,2500.3154,N,12117.1852,E,16.7,350.5,141123,,*20
$GPGGA,221335,2500.3154,N,12117.1852,E,1,08,3.5,10.0,M,0.0,M,,*47
$GPRMC,221336,A,2500.3126,N,12117.1832,E,14.1,350.5,141123,,*24
$GPGGA,221336,2500.3126,N,12117.1832,E,1,08,3.5,10.0,M,0.0,M,,*47
$GPRMC,221337,A,2500.3254,N,12117.1715,E,15.1,350.5,141123,,*28
$GPGGA,221337,2500.3254,N,12117.1715,E,1,08,3.5,10.0,M,0.0,M,,*4A
$GPRMC,221338,A,2500.3234,N,12117.1621,E,12.5,350.5,141123,,*24
$GPGGA,221338,2500.3234,N,12117.1621,E,1,08,3.5,10.0,M,0.0,M,,*45
$GPRMC,221339,A,2500.3349,N,12117.1548,E,14.8,350.5,141123,,*29
$GPGGA,221339,2500.3349,N,12117.1548,E,1,08,3.5,10.0,M,0.0,M,,*43
$GPRMC,221340,A,2500.3417,N,12117.1664,E,16.8,350.5,141123,,*24
$GPGGA,221340,2500.3417,N,12117.1664,E,1,08,3.5,10.0,M,0.0,M,,*4C
$GPRMC,221341,A,2500.3408,N,12117.1640,E,13.3,350.5,141123,,*23
$GPGGA,221341,2500.3408,N,12117.1640,E,1,08,3.5,10.0,M,0.0,M,,*45
$GPRMC,221342,A,2500.3361,N,12117.1777,E,8.4,80.7,141123,,*2C
$GPGGA,221342,2500.3361,N,12117.1777,E,1,08,3.5,10.0,M,0.0,M,,*4B
$GPRMC,221343,A,2500.3258,N,12117.1833,E,10.7,80.7,141123,,*13
$GPGGA,221343,2500.3258,N,12117.1833,E,1,08,3.5,10.0,M,0.0,M,,*4E
$GPRMC,221344,A,2500.3291,N,12117.1792,E,13.0,80.7,141123,,*11
$GPGGA,221344,2500.3291,N,12117.1792,E,1,08,3.5,10.0,M,0.0,M,,*48
$GPRMC,221345,A,2500.3271,N,12117.1711,E,13.2,80.7,141123,,*17
$GPGGA,221345,2500.3271,N,12117.1711,E,1,08,3.5,10.0,M,0.0,M,,*4C
$GPRMC,221346,A,2500.3336,N,12117.1825,E,13.3,80.7,141123,,*1F
$GPGGA,221346,2500.3336,N,12117.1825,E,1,08,3.5,10.0,M,0.0,M,,*45
$GPRMC,221347,A,2500.3424,N,12117.1923,E,11.6,80.7,141123,,*1A
$GPGGA,221347,2500.3424,N,12117.1923,E,1,08,3.5,10.0,M,0.0,M,,*47
$GPRMC,221348,A,2500.3474,N,12117.1963,E,9.8,80.7,141123,,*23
$GPGGA,221348,2500.3474,N,12117.1963,E,1,08,3.5,10.0,M,0.0,M,,*49
$GPRMC,221349,A,2500.3328,N,12117.1885,E,12.2,80.7,141123,,*15
$GPGGA,221349,2500.3328,N,12117.1885,E,1,08,3.5,10.0,M,0.0,M,,*4F
$GPRMC,221350,A,2500.3311,N,12117.1955,E,14.5,80.7,141123,,*1A
$GPGGA,221350,2500.3311,N,12117.1955,E,1,08,3.5,10.0,M,0.0,M,,*41
$GPRMC,221351,A,2500.3301,N,12117.2048,E,16.8,80.7,141123,,*13
$GPGGA,221351,2500.3301,N,12117.2048,E,1,08,3.5,10.0,M,0.0,M,,*47
$GPRMC,221352,A,2500.3321,N,12117.2212,E,13.3,80.7,141123,,*11
$GPGGA,221352,2500.3321,N,12117.2212,E,1,08,3.5,10.0,M,0.0,M,,*4B
$GPRMC,221353,A,2500.3242,N,12117.2160,E,11.0,80.7,141123,,*13
$GPGGA,221353,2500.3242,N,12117.2160,E,1,08,3.5,10.0,M,0.0,M,,*48
$GPRMC,221354,A,2500.3288,N,12117.2101,E,13.3,80.7,141123,,*14
$GPGGA,221354,2500.3288,N,12117.2101,E,1,08,3.5,10.0,M,0.0,M,,*4E
$GPRMC,221355,A,2500.3294,N,12117.2287,E,15.6,80.7,141123,,*16
$GPGGA,221355,2500.3294,N,12117.2287,E,1,08,3.5,10.0,M,0.0,M,,*4F
$GPRMC,221356,A,2500.3423,N,12117.2417,E,16.4,80.7,141123,,*11
$GPGGA,221356,2500.3423,N,12117.2417,E,1,08,3.5,10.0,M,0.0,M,,*49
$GPRMC,221357,A,2500.3533,N,12117.2341,E,18.8,80.7,141123,,*16
$GPGGA,221357,2500.3533,N,12117.2341,E,1,08,3.5,10.0,M,0.0,M,,*4C
$GPRMC,221358,A,2500.3498,N,12117.2432,E,15.3,80.7,141123,,*1C
$GPGGA,221358,2500.3498,N,12117.2432,E,1,08,3.5,10.0,M,0.0,M,,*40
$GPRMC,221359,A,2500.3410,N,12117.2402,E,13.7,80.7,141123,,*1C
$GPGGA,221359,2500.3410,N,12117.2402,E,1,08,3.5,10.0,M,0.0,M,,*42
$GPRMC,221400,A,2500.3412,N,12117.2438,E,12.6,80.7,141123,,*1C
$GPGGA,221400,2500.3412,N,12117.2438,E,1,08,3.5,10.0,M,0.0,M,,*42
$GPRMC,221401,A,2500.3408,N,12117.2567,E,11.7,80.7,141123,,*1F
$GPGGA,221401,2500.3408,N,12117.2567,E,1,08,3.5,10.0,M,0.0,M,,*43
$GPRMC,221402,A,2500.3464,N,12117.2724,E,10.8,80.7,141123,,*1D
$GPGGA,221402,2500.3464,N,12117.2724,E,1,08,3.5,10.0,M,0.0,M,,*4F
$GPRMC,221403,A,2500.3433,N,12117.2663,E,10.0,80.7,141123,,*14
$GPGGA,221403,2500.3433,N,12117.2663,E,1,08,3.5,10.0,M,0.0,M,,*4E
$GPRMC,221404,A,2500.3529,N,12117.2649,E,9.2,80.7,141123,,*2B
$GPGGA,221404,2500.3529,N,12117.2649,E,1,08,3.5,10.0,M,0.0,M,,*4B
$GPRMC,221405,A,2500.3459,N,12117.2682,E,8.5,80.7,141123,,*2D
$GPGGA,221405,2500.3459,N,12117.2682,E,1,08,3.5,10.0,M,0.0,M,,*4B
$GPRMC,221406,A,2500.3533,N,12117.2677,E,7.9,80.7,141123,,*2A
$GPGGA,221406,2500.3533,N,12117.2677,E,1,08,3.5,10.0,M,0.0,M,,*4F
$GPRMC,221407,A,2500.3391,N,12117.2678,E,7.3,80.7,141123,,*20
$GPGGA,221407,2500.3391,N,12117.2678,E,1,08,3.5,10.0,M,0.0,M,,*4F
$GPRMC,221408,A,2500.3567,N,12117.2737,E,6.7,80.7,141123,,*2F
$GPGGA,221408,2500.3567,N,12117.2737,E,1,08,3.5,10.0,M,0.0,M,,*45
$GPRMC,221409,A,2500.3577,N,12117.2762,E,6.2,80.7,141123,,*2A
$GPGGA,221409,2500.3577,N,12117.2762,E,1,08,3.5,10.0,M,0.0,M,,*45
$GPRMC,221410,A,2500.3555,N,12117.2715,E,5.7,80.7,141123,,*24
$GPGGA,221410,2500.3555,N,12117.2715,E,1,08,3.5,10.0,M,0.0,M,,*4D
$GPRMC,221411,A,2500.3514,N,12117.2754,E,5.3,80.7,141123,,*21
$GPGGA,221411,2500.3514,N,12117.2754,E,1,08,3.5,10.0,M,0.0,M,,*4C
$GPRMC,221412,A,2500.3504,N,12117.2786,E,4.9,80.7,141123,,*27
$GPGGA,221412,2500.3504,N,12117.2786,E,1,08,3.5,10.0,M,0.0,M,,*41
$GPRMC,221413,A,2500.3565,N,12117.2684,E,0.0,90.0,141123,,*29
$GPGGA,221413,2500.3565,N,12117.2684,E,1,08,3.5,10.0,M,0.0,M,,*44
$GPRMC,221414,A,2500.3490,N,12117.2796,E,0.0,90.0,141123,,*27
$GPGGA,221414,2500.3490,N,12117.2796,E,1,08,3.5,10.0,M,0.0,M,,*4A
$GPRMC,221415,A,2500.3514,N,12117.2714,E,8.4,90.0,141123,,*2D
$GPGGA,221415,2500.3514,N,12117.2714,E,1,08,3.5,10.0,M,0.0,M,,*4C
$GPRMC,221416,A,2500.3491,N,12117.2710,E,10.7,90.0,141123,,*1C
$GPGGA,221416,2500.3491,N,12117.2710,E,1,08,3.5,10.0,M,0.0,M,,*47
$GPRMC,221417,A,2500.3544,N,12117.2732,E,7.9,90.0,141123,,*2C
$GPGGA,221417,2500.3544,N,12117.2732,E,1,08,3.5,10.0,M,0.0,M,,*4F
$GPRMC,221418,A,2500.3596,N,12117.2771,E,10.2,90.0,141123,,*16
$GPGGA,221418,2500.3596,N,12117.2771,E,1,08,3.5,10.0,M,0.0,M,,*48
$GPRMC,221419,A,2500.3579,N,12117.2876,E,12.5,90.0,141123,,*1B
$GPGGA,221419,2500.3579,N,12117.2876,E,1,08,3.5,10.0,M,0.0,M,,*40
$GPRMC,221420,A,2500.3452,N,12117.2961,E,14.9,90.0,141123,,*14
$GPGGA,221420,2500.3452,N,12117.2961,E,1,08,3.5,10.0,M,0.0,M,,*45
$GPRMC,221421,A,2500.3575,N,12117.3139,E,15.4,90.0,141123,,*19
$GPGGA,221421,2500.3575,N,12117.3139,E,1,08,3.5,10.0,M,0.0,M,,*44
$GPRMC,221422,A,2500.3528,N,12117.3069,E,13.6,90.0,141123,,*12
$GPGGA,221422,2500.3528,N,12117.3069,E,1,08,3.5,10.0,M,0.0,M,,*4B
$GPRMC,221423,A,2500.3492,N,12117.3134,E,16.0,90.0,141123,,*19
$GPGGA,221423,2500.3492,N,12117.3134,E,1,08,3.5,10.0,M,0.0,M,,*43
$GPRMC,221424,A,2500.3549,N,12117.3131,E,15.8,90.0,141123,,*17
$GPGGA,221424,2500.3549,N,12117.3131,E,1,08,3.5,10.0,M,0.0,M,,*46
$GPRMC,221425,A,2500.3456,N,12117.3117,E,17.4,90.0,141123,,*13
$GPGGA,221425,2500.3456,N,12117.3117,E,1,08,3.5,10.0,M,0.0,M,,*4C
$GPRMC,221426,A,2500.3476,N,12117.3202,E,16.7,90.0,141123,,*17
$GPGGA,221426,2500.3476,N,12117.3202,E,1,08,3.5,10.0,M,0.0,M,,*4A
$GPRMC,221427,A,2500.3526,N,12117.3318,E,13.2,90.0,141123,,*18
$GPGGA,221427,2500.3526,N,12117.3318,E,1,08,3.5,10.0,M,0.0,M,,*45
$GPRMC,221428,A,2500.3578,N,12117.3225,E,13.7,90.0,141123,,*16
$GPGGA,221428,2500.3578,N,12117.3225,E,1,08,3.5,10.0,M,0.0,M,,*4E
$GPRMC,221429,A,2500.3694,N,12117.3214,E,15.3,90.0,141123,,*16
$GPGGA,221429,2500.3694,N,12117.3214,E,1,08,3.5,10.0,M,0.0,M,,*4C
$GPRMC,221430,A,2500.3586,N,12117.3423,E,15.9,90.0,141123,,*16
$GPGGA,221430,2500.3586,N,12117.3423,E,1,08,3.5,10.0,M,0.0,M,,*46
$GPRMC,221431,A,2500.3566,N,12117.3395,E,15.0,90.0,141123,,*1A
$GPGGA,221431,2500.3566,N,12117.3395,E,1,08,3.5,10.0,M,0.0,M,,*43
$GPRMC,221432,A,2500.3519,N,12117.3368,E,15.5,90.0,141123,,*16
$GPGGA,221432,2500.3519,N,12117.3368,E,1,08,3.5,10.0,M,0.0,M,,*4A
$GPRMC,221433,A,2500.3551,N,12117.3470,E,12.0,90.0,141123,,*17
$GPGGA,221433,2500.3551,N,12117.3470,E,1,08,3.5,10.0,M,0.0,M,,*49
$GPRMC,221434,A,2500.3524,N,12117.3646,E,13.8,90.0,141123,,*1C
$GPGGA,221434,2500.3524,N,12117.3646,E,1,08,3.5,10.0,M,0.0,M,,*4B
$GPRMC,221435,A,2500.3524,N,12117.3758,E,15.7,90.0,141123,,*1A
$GPGGA,221435,2500.3524,N,12117.3758,E,1,08,3.5,10.0,M,0.0,M,,*44
$GPRMC,221436,A,2500.3495,N,12117.3824,E,16.3,90.0,141123,,*11
$GPGGA,221436,2500.3495,N,12117.3824,E,1,08,3.5,10.0,M,0.0,M,,*48
$GPRMC,221437,A,2500.3401,N,12117.3887,E,8.4,110.0,141123,,*15
$GPGGA,221437,2500.3401,N,12117.3887,E,1,08,3.5,10.0,M,0.0,M,,*4D
$GPRMC,221438,A,2500.3453,N,12117.3755,E,10.7,110.0,141123,,*27
$GPGGA,221438,2500.3453,N,12117.3755,E,1,08,3.5,10.0,M,0.0,M,,*45
$GPRMC,221439,A,2500.3516,N,12117.3892,E,13.0,110.0,141123,,*26
$GPGGA,221439,2500.3516,N,12117.3892,E,1,08,3.5,10.0,M,0.0,M,,*40
$GPRMC,221440,A,2500.3427,N,12117.3824,E,15.4,110.0,141123,,*24
$GPGGA,221440,2500.3427,N,12117.3824,E,1,08,3.5,10.0,M,0.0,M,,*40
$GPRMC,221441,A,2500.3412,N,12117.3822,E,11.9,110.0,141123,,*2C
$GPGGA,221441,2500.3412,N,12117.3822,E,1,08,3.5,10.0,M,0.0,M,,*41
$GPRMC,221442,A,2500.3292,N,12117.3983,E,14.2,110.0,141123,,*25
$GPGGA,221442,2500.3292,N,12117.3983,E,1,08,3.5,10.0,M,0.0,M,,*46
$GPRMC,221443,A,2500.3363,N,12117.3974,E,15.4,110.0,141123,,*24
$GPGGA,221443,2500.3363,N,12117.3974,E,1,08,3.5,10.0,M,0.0,M,,*40
$GPRMC,221444,A,2500.3382,N,12117.4010,E,17.5,110.0,141123,,*23
$GPGGA,221444,2500.3382,N,12117.4010,E,1,08,3.5,10.0,M,0.0,M,,*44
$GPRMC,221445,A,2500.3241,N,12117.4100,E,15.6,110.0,141123,,*2D
$GPGGA,221445,2500.3241,N,12117.4100,E,1,08,3.5,10.0,M,0.0,M,,*4B
$GPRMC,221446,A,2500.3278,N,12117.4105,E,12.1,110.0,141123,,*21
$GPGGA,221446,2500.3278,N,12117.4105,E,1,08,3.5,10.0,M,0.0,M,,*47
$GPRMC,221447,A,2500.3139,N,12117.3966,E,14.4,110.0,141123,,*2F
$GPGGA,221447,2500.3139,N,12117.3966,E,1,08,3.5,10.0,M,0.0,M,,*4A
$GPRMC,221448,A,2500.3282,N,12117.3958,E,15.5,110.0,141123,,*2E
$GPGGA,221448,2500.3282,N,12117.3958,E,1,08,3.5,10.0,M,0.0,M,,*4B
$GPRMC,221449,A,2500.3246,N,12117.3996,E,12.0,110.0,141123,,*27
$GPGGA,221449,2500.3246,N,12117.3996,E,1,08,3.5,10.0,M,0.0,M,,*40
$GPRMC,221450,A,2500.3190,N,12117.4068,E,12.8,110.0,141123,,*20
$GPGGA,221450,2500.3190,N,12117.4068,E,1,08,3.5,10.0,M,0.0,M,,*4F
$GPRMC,221451,A,2500.3257,N,12117.3920,E,15.2,110.0,141123,,*26
$GPGGA,221451,2500.3257,N,12117.3920,E,1,08,3.5,10.0,M,0.0,M,,*44
$GPRMC,221452,A,2500.3186,N,12117.4090,E,8.4,118.1,141123,,*1C
$GPGGA,221452,2500.3186,N,12117.4090,E,1,08,3.5,10.0,M,0.0,M,,*4D
$GPRMC,221453,A,2500.3218,N,12117.4180,E,10.7,118.1,141123,,*23
$GPGGA,221453,2500.3218,N,12117.4180,E,1,08,3.5,10.0,M,0.0,M,,*48
$GPRMC,221454,A,2500.3220,N,12117.4177,E,13.0,118.1,141123,,*23
$GPGGA,221454,2500.3220,N,12117.4177,E,1,08,3.5,10.0,M,0.0,M,,*4C
$GPRMC,221455,A,2500.3137,N,12117.4220,E,15.4,118.1,141123,,*24
$GPGGA,221455,2500.3137,N,12117.4220,E,1,08,3.5,10.0,M,0.0,M,,*49
$GPRMC,221456,A,2500.3224,N,12117.4383,E,17.4,118.1,141123,,*2C
$GPGGA,221456,2500.3224,N,12117.4383,E,1,08,3.5,10.0,M,0.0,M,,*43
$GPRMC,221457,A,2500.3262,N,12117.4313,E,15.4,118.1,141123,,*24
$GPGGA,221457,2500.3262,N,12117.4313,E,1,08,3.5,10.0,M,0.0,M,,*49
$GPRMC,221458,A,2500.3298,N,12117.4372,E,13.0,118.1,141123,,*2B
$GPGGA,221458,2500.3298,N,12117.4372,E,1,08,3.5,10.0,M,0.0,M,,*44
$GPRMC,221459,A,2500.3164,N,12117.4350,E,11.3,118.1,141123,,*2B
$GPGGA,221459,2500.3164,N,12117.4350,E,1,08,3.5,10.0,M,0.0,M,,*45
$GPRMC,221500,A,2500.3108,N,12117.4437,E,13.6,118.1,141123,,*2D
$GPGGA,221500,2500.3108,N,12117.4437,E,1,08,3.5,10.0,M,0.0,M,,*44
$GPRMC,221501,A,2500.3085,N,12117.4416,E,10.1,118.1,141123,,*2F
$GPGGA,221501,2500.3085,N,12117.4416,E,1,08,3.5,10.0,M,0.0,M,,*42
$GPRMC,221502,A,2500.3096,N,12117.4470,E,12.5,118.1,141123,,*28
$GPGGA,221502,2500.3096,N,12117.4470,E,1,08,3.5,10.0,M,0.0,M,,*43
$GPRMC,221503,A,2500.3142,N,12117.4404,E,14.8,118.1,141123,,*29
$GPGGA,221503,2500.3142,N,12117.4404,E,1,08,3.5,10.0,M,0.0,M,,*49
$GPRMC,221504,A,2500.3013,N,12117.4605,E,11.3,118.1,141123,,*26
$GPGGA,221504,2500.3013,N,12117.4605,E,1,08,3.5,10.0,M,0.0,M,,*48
$GPRMC,221505,A,2500.3063,N,12117.4522,E,13.6,118.1,141123,,*21
$GPGGA,221505,2500.3063,N,12117.4522,E,1,08,3.5,10.0,M,0.0,M,,*48
$GPRMC,221506,A,2500.3155,N,12117.4611,E,16.0,118.1,141123,,*26
$GPGGA,221506,2500.3155,N,12117.4611,E,1,08,3.5,10.0,M,0.0,M,,*4C
$GPRMC,221507,A,2500.3140,N,12117.4479,E,15.8,118.1,141123,,*24
$GPGGA,221507,2500.3140,N,12117.4479,E,1,08,3.5,10.0,M,0.0,M,,*45
$GPRMC,221508,A,2500.3182,N,12117.4544,E,15.1,118.1,141123,,*23
$GPGGA,221508,2500.3182,N,12117.4544,E,1,08,3.5,10.0,M,0.0,M,,*4B
$GPRMC,221509,A,2500.3094,N,12117.4735,E,13.9,118.1,141123,,*2E
$GPGGA,221509,2500.3094,N,12117.4735,E,1,08,3.5,10.0,M,0.0,M,,*48
$GPRMC,221510,A,2500.2996,N,12117.4809,E,12.9,118.1,141123,,*2D
$GPGGA,221510,2500.2996,N,12117.4809,E,1,08,3.5,10.0,M,0.0,M,,*4A
$GPRMC,221511,A,2500.2950,N,12117.4893,E,11.9,118.1,141123,,*26
$GPGGA,221511,2500.2950,N,12117.4893,E,1,08,3.5,10.0,M,0.0,M,,*42
$GPRMC,221512,A,2500.2962,N,12117.4982,E,11.0,118.1,141123,,*2C
$GPGGA,221512,2500.2962,N,12117.4982,E,1,08,3.5,10.0,M,0.0,M,,*41
$GPRMC,221513,A,2500.3067,N,12117.5077,E,10.2,118.1,141123,,*21
$GPGGA,221513,2500.3067,N,12117.5077,E,1,08,3.5,10.0,M,0.0,M,,*4F
$GPRMC,221514,A,2500.2982,N,12117.4905,E,9.4,118.1,141123,,*16
$GPGGA,221514,2500.2982,N,12117.4905,E,1,08,3.5,10.0,M,0.0,M,,*46
$GPRMC,221515,A,2500.2968,N,12117.4895,E,8.7,118.1,141123,,*19
$GPGGA,221515,2500.2968,N,12117.4895,E,1,08,3.5,10.0,M,0.0,M,,*4B
$GPRMC,221516,A,2500.2885,N,12117.4967,E,8.1,118.1,141123,,*12
$GPGGA,221516,2500.2885,N,12117.4967,E,1,08,3.5,10.0,M,0.0,M,,*46
$GPRMC,221517,A,2500.2969,N,12117.5076,E,7.5,118.1,141123,,*13
$GPGGA,221517,2500.2969,N,12117.5076,E,1,08,3.5,10.0,M,0.0,M,,*4C
$GPRMC,221518,A,2500.2974,N,12117.5067,E,6.9,118.1,141123,,*1D
$GPGGA,221518,2500.2974,N,12117.5067,E,1,08,3.5,10.0,M,0.0,M,,*4F
$GPRMC,221519,A,2500.2964,N,12117.5195,E,6.4,118.1,141123,,*1C
$GPGGA,221519,2500.2964,N,12117.5195,E,1,08,3.5,10.0,M,0.0,M,,*43
$GPRMC,221520,A,2500.2904,N,12117.5337,E,5.9,118.1,141123,,*14
$GPGGA,221520,2500.2904,N,12117.5337,E,1,08,3.5,10.0,M,0.0,M,,*45
$GPRMC,221521,A,2500.2914,N,12117.5269,E,5.5,118.1,141123,,*12
$GPGGA,221521,2500.2914,N,12117.5269,E,1,08,3.5,10.0,M,0.0,M,,*4F
$GPRMC,221522,A,2500.2932,N,12117.5380,E,5.1,118.1,141123,,*17
$GPGGA,221522,2500.2932,N,12117.5380,E,1,08,3.5,10.0,M,0.0,M,,*4E
$GPRMC,221523,A,2500.2938,N,12117.5329,E,4.7,118.1,141123,,*18
$GPGGA,221523,2500.2938,N,12117.5329,E,1,08,3.5,10.0,M,0.0,M,,*46
$GPRMC,221524,A,2500.2901,N,12117.5340,E,0.0,125.7,141123,,*11
$GPGGA,221524,2500.2901,N,12117.5340,E,1,08,3.5,10.0,M,0.0,M,,*44
$GPRMC,221525,A,2500.2987,N,12117.5226,E,0.0,125.7,141123,,*1F
$GPGGA,221525,2500.2987,N,12117.5226,E,1,08,3.5,10.0,M,0.0,M,,*4A
$GPRMC,221526,A,2500.2933,N,12117.5267,E,0.0,125.7,141123,,*16
$GPGGA,221526,2500.2933,N,12117.5267,E,1,08,3.5,10.0,M,0.0,M,,*43
$GPRMC,221527,A,2500.2900,N,12117.5258,E,0.0,125.7,141123,,*1B
$GPGGA,221527,2500.2900,N,12117.5258,E,1,08,3.5,10.0,M,0.0,M,,*4E
$GPRMC,221528,A,2500.2847,N,12117.5165,E,0.0,125.7,141123,,*1B
$GPGGA,221528,2500.2847,N,12117.5165,E,1,08,3.5,10.0,M,0.0,M,,*4E
$GPRMC,221529,A,2500.2749,N,12117.5066,E,0.0,125.7,141123,,*19
$GPGGA,221529,2500.2749,N,12117.5066,E,1,08,3.5,10.0,M,0.0,M,,*4C
$GPRMC,221530,A,2500.2771,N,12117.5231,E,0.0,125.7,141123,,*1A
$GPGGA,221530,2500.2771,N,12117.5231,E,1,08,3.5,10.0,M,0.0,M,,*4F
$GPRMC,221531,A,2500.2865,N,12117.5292,E,8.4,125.7,141123,,*14
$GPGGA,221531,2500.2865,N,12117.5292,E,1,08,3.5,10.0,M,0.0,M,,*4D
$GPRMC,221532,A,2500.2801,N,12117.5340,E,10.7,125.7,141123,,*21
$GPGGA,221532,2500.2801,N,12117.5340,E,1,08,3.5,10.0,M,0.0,M,,*42
$GPRMC,221533,A,2500.2956,N,12117.5390,E,13.0,125.7,141123,,*2A
$GPGGA,221533,2500.2956,N,12117.5390,E,1,08,3.5,10.0,M,0.0,M,,*4D
$GPRMC,221534,A,2500.2874,N,12117.5354,E,15.4,125.7,141123,,*26
$GPGGA,221534,2500.2874,N,12117.5354,E,1,08,3.5,10.0,M,0.0,M,,*43
$GPRMC,221535,A,2500.2812,N,12117.5359,E,16.1,125.7,141123,,*2C
$GPGGA,221535,2500.2812,N,12117.5359,E,1,08,3.5,10.0,M,0.0,M,,*4F
$GPRMC,221536,A,2500.2746,N,12117.5423,E,13.9,125.7,141123,,*26
$GPGGA,221536,2500.2746,N,12117.5423,E,1,08,3.5,10.0,M,0.0,M,,*48
$GPRMC,221537,A,2500.2673,N,12117.5521,E,16.2,125.7,141123,,*2D
$GPGGA,221537,2500.2673,N,12117.5521,E,1,08,3.5,10.0,M,0.0,M,,*4D
$GPRMC,221538,A,2500.2651,N,12117.5450,E,18.5,125.7,141123,,*2C
$GPGGA,221538,2500.2651,N,12117.5450,E,1,08,3.5,10.0,M,0.0,M,,*45
$GPRMC,221539,A,2500.2681,N,12117.5435,E,15.0,125.7,141123,,*2B
$GPGGA,221539,2500.2681,N,12117.5435,E,1,08,3.5,10.0,M,0.0,M,,*4A
$GPRMC,221540,A,2500.2678,N,12117.5513,E,16.2,125.7,141123,,*27
$GPGGA,221540,2500.2678,N,12117.5513,E,1,08,3.5,10.0,M,0.0,M,,*47
$GPRMC,221541,A,2500.2564,N,12117.5629,E,12.7,125.7,141123,,*23
$GPGGA,221541,2500.2564,N,12117.5629,E,1,08,3.5,10.0,M,0.0,M,,*42
$GPRMC,221542,A,2500.2510,N,12117.5647,E,15.1,125.7,141123,,*2A
$GPGGA,221542,2500.2510,N,12117.5647,E,1,08,3.5,10.0,M,0.0,M,,*4A
$GPRMC,221543,A,2500.2543,N,12117.5651,E,11.6,125.7,141123,,*29
$GPGGA,221543,2500.2543,N,12117.5651,E,1,08,3.5,10.0,M,0.0,M,,*4A
$GPRMC,221544,A,2500.2575,N,12117.5576,E,13.9,125.7,141123,,*20
$GPGGA,221544,2500.2575,N,12117.5576,E,1,08,3.5,10.0,M,0.0,M,,*4E
$GPRMC,221545,A,2500.2643,N,12117.5663,E,13.2,125.7,141123,,*2B
$GPGGA,221545,2500.2643,N,12117.5663,E,1,08,3.5,10.0,M,0.0,M,,*4E
$GPRMC,221546,A,2500.2673,N,12117.5740,E,15.5,125.7,141123,,*2A
$GPGGA,221546,2500.2673,N,12117.5740,E,1,08,3.5,10.0,M,0.0,M,,*4E
$GPRMC,221547,A,2500.2567,N,12117.5749,E,8.4,143.1,141123,,*1F
$GPGGA,221547,2500.2567,N,12117.5749,E,1,08,3.5,10.0,M,0.0,M,,*40
$GPRMC,221548,A,2500.2470,N,12117.5812,E,9.3,143.1,141123,,*10
$GPGGA,221548,2500.2470,N,12117.5812,E,1,08,3.5,10.0,M,0.0,M,,*49
$GPRMC,221549,A,2500.2451,N,12117.5779,E,11.6,143.1,141123,,*2C
$GPGGA,221549,2500.2451,N,12117.5779,E,1,08,3.5,10.0,M,0.0,M,,*49
$GPRMC,221550,A,2500.2483,N,12117.5873,E,14.0,143.1,141123,,*2D
$GPGGA,221550,2500.2483,N,12117.5873,E,1,08,3.5,10.0,M,0.0,M,,*4B
$GPRMC,221551,A,2500.2405,N,12117.5847,E,14.7,143.1,141123,,*22
$GPGGA,221551,2500.2405,N,12117.5847,E,1,08,3.5,10.0,M,0.0,M,,*43
$GPRMC,221552,A,2500.2494,N,12117.5914,E,15.7,143.1,141123,,*2F
$GPGGA,221552,2500.2494,N,12117.5914,E,1,08,3.5,10.0,M,0.0,M,,*4F
$GPRMC,221553,A,2500.2514,N,12117.5979,E,16.2,143.1,141123,,*2A
$GPGGA,221553,2500.2514,N,12117.5979,E,1,08,3.5,10.0,M,0.0,M,,*4C
$GPRMC,221554,A,2500.2460,N,12117.5963,E,18.3,143.1,141123,,*2B
$GPGGA,221554,2500.2460,N,12117.5963,E,1,08,3.5,10.0,M,0.0,M,,*42
$GPRMC,221555,A,2500.2339,N,12117.5927,E,14.8,143.1,141123,,*26
$GPGGA,221555,2500.2339,N,12117.5927,E,1,08,3.5,10.0,M,0.0,M,,*48
$GPRMC,221556,A,2500.2242,N,12117.6037,E,17.2,143.1,141123,,*2A
$GPGGA,221556,2500.2242,N,12117.6037,E,1,08,3.5,10.0,M,0.0,M,,*4D
$GPRMC,221557,A,2500.2225,N,12117.6051,E,17.0,143.1,141123,,*28
$GPGGA,221557,2500.2225,N,12117.6051,E,1,08,3.5,10.0,M,0.0,M,,*4D
$GPRMC,221558,A,2500.2136,N,12117.6008,E,13.5,143.1,141123,,*2B
$GPGGA,221558,2500.2136,N,12117.6008,E,1,08,3.5,10.0,M,0.0,M,,*4F
$GPRMC,221559,A,2500.2133,N,12117.6072,E,15.8,143.1,141123,,*29
$GPGGA,221559,2500.2133,N,12117.6072,E,1,08,3.5,10.0,M,0.0,M,,*46
$GPRMC,221600,A,2500.2045,N,12117.5915,E,18.2,143.1,141123,,*2A
$GPGGA,221600,2500.2045,N,12117.5915,E,1,08,3.5,10.0,M,0.0,M,,*42
$GPRMC,221601,A,2500.2052,N,12117.6013,E,8.4,161.2,141123,,*15
$GPGGA,221601,2500.2052,N,12117.6013,E,1,08,3.5,10.0,M,0.0,M,,*49
$GPRMC,221602,A,2500.1947,N,12117.5956,E,10.7,161.2,141123,,*29
$GPGGA,221602,2500.1947,N,12117.5956,E,1,08,3.5,10.0,M,0.0,M,,*4F
$GPRMC,221603,A,2500.2023,N,12117.5840,E,13.0,161.2,141123,,*22
$GPGGA,221603,2500.2023,N,12117.5840,E,1,08,3.5,10.0,M,0.0,M,,*40
$GPRMC,221604,A,2500.1978,N,12117.5853,E,15.4,161.2,141123,,*21
$GPGGA,221604,2500.1978,N,12117.5853,E,1,08,3.5,10.0,M,0.0,M,,*41
$GPRMC,221605,A,2500.1912,N,12117.5909,E,17.5,161.2,141123,,*21
$GPGGA,221605,2500.1912,N,12117.5909,E,1,08,3.5,10.0,M,0.0,M,,*42
$GPRMC,221606,A,2500.1823,N,12117.6073,E,18.3,161.2,141123,,*2F
$GPGGA,221606,2500.1823,N,12117.6073,E,1,08,3.5,10.0,M,0.0,M,,*45
$GPRMC,221607,A,2500.1701,N,12117.6237,E,15.3,161.2,141123,,*2E
$GPGGA,221607,2500.1701,N,12117.6237,E,1,08,3.5,10.0,M,0.0,M,,*49
$GPRMC,221608,A,2500.1651,N,12117.6284,E,12.8,161.2,141123,,*21
$GPGGA,221608,2500.1651,N,12117.6284,E,1,08,3.5,10.0,M,0.0,M,,*4A
$GPRMC,221609,A,2500.1596,N,12117.6138,E,15.2,161.2,141123,,*21
$GPGGA,221609,2500.1596,N,12117.6138,E,1,08,3.5,10.0,M,0.0,M,,*47
$GPRMC,221610,A,2500.1724,N,12117.6186,E,16.3,161.2,141123,,*25
$GPGGA,221610,2500.1724,N,12117.6186,E,1,08,3.5,10.0,M,0.0,M,,*41
$GPRMC,221611,A,2500.1671,N,12117.6283,E,13.7,161.2,141123,,*22
$GPGGA,221611,2500.1671,N,12117.6283,E,1,08,3.5,10.0,M,0.0,M,,*47
$GPRMC,221612,A,2500.1652,N,12117.6252,E,16.0,161.2,141123,,*2E
$GPGGA,221612,2500.1652,N,12117.6252,E,1,08,3.5,10.0,M,0.0,M,,*49
$GPRMC,221613,A,2500.1485,N,12117.6111,E,12.5,161.2,141123,,*22
$GPGGA,221613,2500.1485,N,12117.6111,E,1,08,3.5,10.0,M,0.0,M,,*44
$GPRMC,221614,A,2500.1479,N,12117.6156,E,14.8,161.2,141123,,*2E
$GPGGA,221614,2500.1479,N,12117.6156,E,1,08,3.5,10.0,M,0.0,M,,*43
$GPRMC,221615,A,2500.1494,N,12117.6203,E,11.9,161.2,141123,,*2B
$GPGGA,221615,2500.1494,N,12117.6203,E,1,08,3.5,10.0,M,0.0,M,,*42
$GPRMC,221616,A,2500.1451,N,12117.6161,E,14.2,161.2,141123,,*28
$GPGGA,221616,2500.1451,N,12117.6161,E,1,08,3.5,10.0,M,0.0,M,,*4F
$GPRMC,221617,A,2500.1419,N,12117.6177,E,15.5,161.2,141123,,*24
$GPGGA,221617,2500.1419,N,12117.6177,E,1,08,3.5,10.0,M,0.0,M,,*45
$GPRMC,221618,A,2500.1509,N,12117.6247,E,12.2,161.2,141123,,*2B
$GPGGA,221618,2500.1509,N,12117.6247,E,1,08,3.5,10.0,M,0.0,M,,*4A
$GPRMC,221619,A,2500.1346,N,12117.6318,E,14.1,161.2,141123,,*29
$GPGGA,221619,2500.1346,N,12117.6318,E,1,08,3.5,10.0,M,0.0,M,,*4D
$GPRMC,221620,A,2500.1410,N,12117.6462,E,15.2,161.2,141123,,*2F
$GPGGA,221620,2500.1410,N,12117.6462,E,1,08,3.5,10.0,M,0.0,M,,*49
$GPRMC,221621,A,2500.1349,N,12117.6340,E,15.4,161.2,141123,,*24
$GPGGA,221621,2500.1349,N,12117.6340,E,1,08,3.5,10.0,M,0.0,M,,*44
$GPRMC,221622,A,2500.1263,N,12117.6321,E,15.0,161.2,141123,,*2D
$GPGGA,221622,2500.1263,N,12117.6321,E,1,08,3.5,10.0,M,0.0,M,,*49
$GPRMC,221623,A,2500.1245,N,12117.6347,E,15.6,161.2,141123,,*2E
$GPGGA,221623,2500.1245,N,12117.6347,E,1,08,3.5,10.0,M,0.0,M,,*4C
$GPRMC,221624,A,2500.1091,N,12117.6378,E,17.9,161.2,141123,,*23
$GPGGA,221624,2500.1091,N,12117.6378,E,1,08,3.5,10.0,M,0.0,M,,*4C
$GPRMC,221625,A,2500.1070,N,12117.6478,E,16.8,161.2,141123,,*2A
$GPGGA,221625,2500.1070,N,12117.6478,E,1,08,3.5,10.0,M,0.0,M,,*45
$GPRMC,221626,A,2500.1052,N,12117.6417,E,13.3,161.2,141123,,*2E
$GPGGA,221626,2500.1052,N,12117.6417,E,1,08,3.5,10.0,M,0.0,M,,*4F
$GPRMC,221627,A,2500.1006,N,12117.6292,E,8.4,162.0,141123,,*19
$GPGGA,221627,2500.1006,N,12117.6292,E,1,08,3.5,10.0,M,0.0,M,,*44
$GPRMC,221628,A,2500.1032,N,12117.6222,E,10.7,162.0,141123,,*20
$GPGGA,221628,2500.1032,N,12117.6222,E,1,08,3.5,10.0,M,0.0,M,,*47
$GPRMC,221629,A,2500.1061,N,12117.6217,E,11.7,162.0,141123,,*20
$GPGGA,221629,2500.1061,N,12117.6217,E,1,08,3.5,10.0,M,0.0,M,,*46
$GPRMC,221630,A,2500.1043,N,12117.6349,E,11.7,162.0,141123,,*22
$GPGGA,221630,2500.1043,N,12117.6349,E,1,08,3.5,10.0,M,0.0,M,,*44
$GPRMC,221631,A,2500.0939,N,12117.6323,E,10.4,162.0,141123,,*28
$GPGGA,221631,2500.0939,N,12117.6323,E,1,08,3.5,10.0,M,0.0,M,,*4C
$GPRMC,221632,A,2500.0968,N,12117.6378,E,12.8,162.0,141123,,*2F
$GPGGA,221632,2500.0968,N,12117.6378,E,1,08,3.5,10.0,M,0.0,M,,*45
$GPRMC,221633,A,2500.1016,N,12117.6526,E,15.1,162.0,141123,,*2C
$GPGGA,221633,2500.1016,N,12117.6526,E,1,08,3.5,10.0,M,0.0,M,,*48
$GPRMC,221634,A,2500.0746,N,12117.6609,E,13.5,162.0,141123,,*24
$GPGGA,221634,2500.0746,N,12117.6609,E,1,08,3.5,10.0,M,0.0,M,,*42
$GPRMC,221635,A,2500.0788,N,12117.6566,E,15.8,162.0,141123,,*26
$GPGGA,221635,2500.0788,N,12117.6566,E,1,08,3.5,10.0,M,0.0,M,,*4B
$GPRMC,221636,A,2500.0713,N,12117.6625,E,14.3,162.0,141123,,*29
$GPGGA,221636,2500.0713,N,12117.6625,E,1,08,3.5,10.0,M,0.0,M,,*4E
$GPRMC,221637,A,2500.0756,N,12117.6618,E,16.6,162.0,141123,,*20
$GPGGA,221637,2500.0756,N,12117.6618,E,1,08,3.5,10.0,M,0.0,M,,*40
$GPRMC,221638,A,2500.0661,N,12117.6575,E,13.1,162.0,141123,,*20
$GPGGA,221638,2500.0661,N,12117.6575,E,1,08,3.5,10.0,M,0.0,M,,*42
$GPRMC,221639,A,2500.0520,N,12117.6685,E,15.5,162.0,141123,,*29
$GPGGA,221639,2500.0520,N,12117.6685,E,1,08,3.5,10.0,M,0.0,M,,*49
$GPRMC,221640,A,2500.0495,N,12117.6745,E,13.5,162.0,141123,,*23
$GPGGA,221640,2500.0495,N,12117.6745,E,1,08,3.5,10.0,M,0.0,M,,*45
$GPRMC,221641,A,2500.0574,N,12117.6847,E,15.9,162.0,141123,,*2B
$GPGGA,221641,2500.0574,N,12117.6847,E,1,08,3.5,10.0,M,0.0,M,,*47
$GPRMC,221642,A,2500.0523,N,12117.6679,E,13.6,162.0,141123,,*20
$GPGGA,221642,2500.0523,N,12117.6679,E,1,08,3.5,10.0,M,0.0,M,,*45
$GPRMC,221643,A,2500.0589,N,12117.6725,E,15.6,162.0,141123,,*2F
$GPGGA,221643,2500.0589,N,12117.6725,E,1,08,3.5,10.0,M,0.0,M,,*4C
$GPRMC,221644,A,2500.0405,N,12117.6685,E,14.9,162.0,141123,,*28
$GPGGA,221644,2500.0405,N,12117.6685,E,1,08,3.5,10.0,M,0.0,M,,*45
$GPRMC,221645,A,2500.0296,N,12117.6669,E,13.8,162.0,141123,,*21
$GPGGA,221645,2500.0296,N,12117.6669,E,1,08,3.5,10.0,M,0.0,M,,*4A
$GPRMC,221646,A,2500.0345,N,12117.6742,E,12.9,162.0,141123,,*25
$GPGGA,221646,2500.0345,N,12117.6742,E,1,08,3.5,10.0,M,0.0,M,,*4E
$GPRMC,221647,A,2500.0256,N,12117.6800,E,12.0,162.0,141123,,*27
$GPGGA,221647,2500.0256,N,12117.6800,E,1,08,3.5,10.0,M,0.0,M,,*45
$GPRMC,221648,A,2500.0327,N,12117.6800,E,11.1,162.0,141123,,*2D
$GPGGA,221648,2500.0327,N,12117.6800,E,1,08,3.5,10.0,M,0.0,M,,*4D
$GPRMC,221649,A,2500.0279,N,12117.6683,E,10.3,162.0,141123,,*20
$GPGGA,221649,2500.0279,N,12117.6683,E,1,08,3.5,10.0,M,0.0,M,,*43
$GPRMC,221650,A,2500.0193,N,12117.6718,E,9.6,162.0,141123,,*11
$GPGGA,221650,2500.0193,N,12117.6718,E,1,08,3.5,10.0,M,0.0,M,,*4F
$GPRMC,221651,A,2500.0120,N,12117.6698,E,8.9,162.0,141123,,*1F
$GPGGA,221651,2500.0120,N,12117.6698,E,1,08,3.5,10.0,M,0.0,M,,*4F
$GPRMC,221652,A,2500.0205,N,12117.6633,E,8.3,162.0,141123,,*13
$GPGGA,221652,2500.0205,N,12117.6633,E,1,08,3.5,10.0,M,0.0,M,,*49
$GPRMC,221653,A,2500.0254,N,12117.6635,E,7.7,162.0,141123,,*1B
$GPGGA,221653,2500.0254,N,12117.6635,E,1,08,3.5,10.0,M,0.0,M,,*4A
$GPRMC,221654,A,2500.0210,N,12117.6731,E,7.2,162.0,141123,,*1C
$GPGGA,221654,2500.0210,N,12117.6731,E,1,08,3.5,10.0,M,0.0,M,,*48
$GPRMC,221655,A,2500.0207,N,12117.6696,E,6.7,162.0,141123,,*13
$GPGGA,221655,2500.0207,N,12117.6696,E,1,08,3.5,10.0,M,0.0,M,,*43
$GPRMC,221656,A,2500.0310,N,12117.6714,E,6.2,162.0,141123,,*19
$GPGGA,221656,2500.0310,N,12117.6714,E,1,08,3.5,10.0,M,0.0,M,,*4C
$GPRMC,221657,A,2500.0221,N,12117.6743,E,5.8,162.0,141123,,*10
$GPGGA,221657,2500.0221,N,12117.6743,E,1,08,3.5,10.0,M,0.0,M,,*4C
$GPRMC,221658,A,2500.0184,N,12117.6714,E,5.3,162.0,141123,,*1A
$GPGGA,221658,2500.0184,N,12117.6714,E,1,08,3.5,10.0,M,0.0,M,,*4D
$GPRMC,221659,A,2500.0171,N,12117.6719,E,5.0,162.0,141123,,*1F
$GPGGA,221659,2500.0171,N,12117.6719,E,1,08,3.5,10.0,M,0.0,M,,*4B
$GPRMC,221700,A,2500.0188,N,12117.6740,E,4.6,162.0,141123,,*1F
$GPGGA,221700,2500.0188,N,12117.6740,E,1,08,3.5,10.0,M,0.0,M,,*4C
$GPRMC,221701,A,2500.0195,N,12117.6842,E,0.0,165.0,141123,,*1A
$GPGGA,221701,2500.0195,N,12117.6842,E,1,08,3.5,10.0,M,0.0,M,,*4C
$GPRMC,221702,A,2500.0146,N,12117.6778,E,0.0,165.0,141123,,*11
$GPGGA,221702,2500.0146,N,12117.6778,E,1,08,3.5,10.0,M,0.0,M,,*47
$GPRMC,221703,A,2500.0232,N,12117.6780,E,0.0,165.0,141123,,*17
$GPGGA,221703,2500.0232,N,12117.6780,E,1,08,3.5,10.0,M,0.0,M,,*41
$GPRMC,221704,A,2500.0240,N,12117.6904,E,0.0,165.0,141123,,*17
$GPGGA,221704,2500.0240,N,12117.6904,E,1,08,3.5,10.0,M,0.0,M,,*41
$GPRMC,221705,A,2500.0192,N,12117.6907,E,0.0,165.0,141123,,*19
$GPGGA,221705,2500.0192,N,12117.6907,E,1,08,3.5,10.0,M,0.0,M,,*4F
$GPRMC,221706,A,2500.0013,N,12117.6809,E,0.0,165.0,141123,,*1D
$GPGGA,221706,2500.0013,N,12117.6809,E,1,08,3.5,10.0,M,0.0,M,,*4B
$GPRMC,221707,A,2500.0097,N,12117.6882,E,0.0,165.0,141123,,*13
$GPGGA,221707,2500.0097,N,12117.6882,E,1,08,3.5,10.0,M,0.0,M,,*45
$GPRMC,221708,A,2500.0011,N,12117.6856,E,0.0,165.0,141123,,*1B
$GPGGA,221708,2500.0011,N,12117.6856,E,1,08,3.5,10.0,M,0.0,M,,*4D
$GPRMC,221709,A,2459.9991,N,12117.6810,E,0.0,165.0,141123,,*1D
$GPGGA,221709,2459.9991,N,12117.6810,E,1,08,3.5,10.0,M,0.0,M,,*4B
$GPRMC,221710,A,2500.0020,N,12117.6903,E,8.4,165.0,141123,,*1D
$GPGGA,221710,2500.0020,N,12117.6903,E,1,08,3.5,10.0,M,0.0,M,,*47
$GPRMC,221711,A,2459.9967,N,12117.6862,E,10.7,165.0,141123,,*2E
$GPGGA,221711,2459.9967,N,12117.6862,E,1,08,3.5,10.0,M,0.0,M,,*4E
$GPRMC,221712,A,2459.9977,N,12117.6829,E,13.0,165.0,141123,,*27
$GPGGA,221712,2459.9977,N,12117.6829,E,1,08,3.5,10.0,M,0.0,M,,*43
$GPRMC,221713,A,2459.9977,N,12117.6881,E,15.4,165.0,141123,,*26
$GPGGA,221713,2459.9977,N,12117.6881,E,1,08,3.5,10.0,M,0.0,M,,*40
$GPRMC,221714,A,2459.9915,N,12117.6848,E,15.9,165.0,141123,,*2D
$GPGGA,221714,2459.9915,N,12117.6848,E,1,08,3.5,10.0,M,0.0,M,,*46
$GPRMC,221715,A,2459.9875,N,12117.6896,E,16.5,165.0,141123,,*27
$GPGGA,221715,2459.9875,N,12117.6896,E,1,08,3.5,10.0,M,0.0,M,,*43
$GPRMC,221716,A,2459.9823,N,12117.6839,E,17.8,165.0,141123,,*2E
$GPGGA,221716,2459.9823,N,12117.6839,E,1,08,3.5,10.0,M,0.0,M,,*46
$GPRMC,221717,A,2459.9880,N,12117.7012,E,14.3,165.0,141123,,*2E
$GPGGA,221717,2459.9880,N,12117.7012,E,1,08,3.5,10.0,M,0.0,M,,*4E
$GPRMC,221718,A,2459.9873,N,12117.6986,E,15.3,165.0,141123,,*29
$GPGGA,221718,2459.9873,N,12117.6986,E,1,08,3.5,10.0,M,0.0,M,,*48
$GPRMC,221719,A,2459.9745,N,12117.6886,E,12.0,165.0,141123,,*27
$GPGGA,221719,2459.9745,N,12117.6886,E,1,08,3.5,10.0,M,0.0,M,,*42
$GPRMC,221720,A,2459.9734,N,12117.6928,E,14.3,165.0,141123,,*2B
$GPGGA,221720,2459.9734,N,12117.6928,E,1,08,3.5,10.0,M,0.0,M,,*4B
$GPRMC,221721,A,2459.9739,N,12117.6957,E,13.1,165.0,141123,,*2A
$GPGGA,221721,2459.9739,N,12117.6957,E,1,08,3.5,10.0,M,0.0,M,,*4F
$GPRMC,221722,A,2459.9738,N,12117.7031,E,15.1,165.0,141123,,*26
$GPGGA,221722,2459.9738,N,12117.7031,E,1,08,3.5,10.0,M,0.0,M,,*45
$GPRMC,221723,A,2459.9628,N,12117.6951,E,16.5,165.0,141123,,*2E
$GPGGA,221723,2459.9628,N,12117.6951,E,1,08,3.5,10.0,M,0.0,M,,*4A
$GPRMC,221724,A,2459.9620,N,12117.6946,E,16.5,165.0,141123,,*27
$GPGGA,221724,2459.9620,N,12117.6946,E,1,08,3.5,10.0,M,0.0,M,,*43
$GPRMC,221725,A,2459.9612,N,12117.6889,E,15.3,165.0,141123,,*20
$GPGGA,221725,2459.9612,N,12117.6889,E,1,08,3.5,10.0,M,0.0,M,,*41
$GPRMC,221726,A,2459.9494,N,12117.6883,E,15.5,165.0,141123,,*23
$GPGGA,221726,2459.9494,N,12117.6883,E,1,08,3.5,10.0,M,0.0,M,,*44
$GPRMC,221727,A,2459.9460,N,12117.6985,E,8.4,173.3,141123,,*17
$GPGGA,221727,2459.9460,N,12117.6985,E,1,08,3.5,10.0,M,0.0,M,,*49
$GPRMC,221728,A,2459.9437,N,12117.6999,E,10.7,173.3,141123,,*2D
$GPGGA,221728,2459.9437,N,12117.6999,E,1,08,3.5,10.0,M,0.0,M,,*49
$GPRMC,221729,A,2459.9394,N,12117.7145,E,13.0,173.3,141123,,*2E
$GPGGA,221729,2459.9394,N,12117.7145,E,1,08,3.5,10.0,M,0.0,M,,*4E
$GPRMC,221730,A,2459.9460,N,12117.7111,E,15.4,173.3,141123,,*29
$GPGGA,221730,2459.9460,N,12117.7111,E,1,08,3.5,10.0,M,0.0,M,,*4B
$GPRMC,221731,A,2459.9343,N,12117.7103,E,17.7,173.3,141123,,*2C
$GPGGA,221731,2459.9343,N,12117.7103,E,1,08,3.5,10.0,M,0.0,M,,*4F
$GPRMC,221732,A,2459.9293,N,12117.7096,E,14.5,173.3,141123,,*2F
$GPGGA,221732,2459.9293,N,12117.7096,E,1,08,3.5,10.0,M,0.0,M,,*4D
$GPRMC,221733,A,2459.9277,N,12117.6944,E,14.8,173.3,141123,,*2E
$GPGGA,221733,2459.9277,N,12117.6944,E,1,08,3.5,10.0,M,0.0,M,,*41
$GPRMC,221734,A,2459.9344,N,12117.6963,E,15.3,173.3,141123,,*27
$GPGGA,221734,2459.9344,N,12117.6963,E,1,08,3.5,10.0,M,0.0,M,,*42
$GPRMC,221735,A,2459.9273,N,12117.7018,E,17.7,173.3,141123,,*21
$GPGGA,221735,2459.9273,N,12117.7018,E,1,08,3.5,10.0,M,0.0,M,,*42
$GPRMC,221736,A,2459.9145,N,12117.6974,E,14.2,173.3,141123,,*20
$GPGGA,221736,2459.9145,N,12117.6974,E,1,08,3.5,10.0,M,0.0,M,,*45
$GPRMC,221737,A,2459.9080,N,12117.7018,E,12.3,173.3,141123,,*2C
$GPGGA,221737,2459.9080,N,12117.7018,E,1,08,3.5,10.0,M,0.0,M,,*4E
$GPRMC,221738,A,2459.9048,N,12117.6985,E,10.7,173.3,141123,,*2D
$GPGGA,221738,2459.9048,N,12117.6985,E,1,08,3.5,10.0,M,0.0,M,,*49
$GPRMC,221739,A,2459.9040,N,12117.7079,E,9.2,173.3,141123,,*12
$GPGGA,221739,2459.9040,N,12117.7079,E,1,08,3.5,10.0,M,0.0,M,,*4B
$GPRMC,221740,A,2459.8913,N,12117.7104,E,8.0,173.3,141123,,*1A
$GPGGA,221740,2459.8913,N,12117.7104,E,1,08,3.5,10.0,M,0.0,M,,*40
$GPRMC,221741,A,2459.8971,N,12117.6966,E,7.0,173.3,141123,,*1D
$GPGGA,221741,2459.8971,N,12117.6966,E,1,08,3.5,10.0,M,0.0,M,,*48
$GPRMC,221742,A,2459.8996,N,12117.6938,E,6.0,173.3,141123,,*1D
$GPGGA,221742,2459.8996,N,12117.6938,E,1,08,3.5,10.0,M,0.0,M,,*49
$GPRMC,221743,A,2459.8998,N,12117.7034,E,5.2,173.3,141123,,*17
$GPGGA,221743,2459.8998,N,12117.7034,E,1,08,3.5,10.0,M,0.0,M,,*42
$GPRMC,221744,A,2459.9027,N,12117.6951,E,4.6,173.3,141123,,*12
$GPGGA,221744,2459.9027,N,12117.6951,E,1,08,3.5,10.0,M,0.0,M,,*42
$GPRMC,221745,A,2459.8969,N,12117.6799,E,0.0,180.0,141123,,*16
$GPGGA,221745,2459.8969,N,12117.6799,E,1,08,3.5,10.0,M,0.0,M,,*4B
$GPRMC,221746,A,2459.8901,N,12117.6800,E,0.0,180.0,141123,,*14
$GPGGA,221746,2459.8901,N,12117.6800,E,1,08,3.5,10.0,M,0.0,M,,*49
$GPRMC,221747,A,2459.8952,N,12117.6903,E,0.0,180.0,141123,,*11
$GPGGA,221747,2459.8952,N,12117.6903,E,1,08,3.5,10.0,M,0.0,M,,*4C
$GPRMC,221748,A,2459.8969,N,12117.7008,E,0.0,180.0,141123,,*15
$GPGGA,221748,2459.8969,N,12117.7008,E,1,08,3.5,10.0,M,0.0,M,,*48
$GPRMC,221749,A,2459.8905,N,12117.7056,E,8.4,180.0,141123,,*19
$GPGGA,221749,2459.8905,N,12117.7056,E,1,08,3.5,10.0,M,0.0,M,,*48
$GPRMC,221750,A,2459.8956,N,12117.7084,E,10.7,180.0,141123,,*22
$GPGGA,221750,2459.8956,N,12117.7084,E,1,08,3.5,10.0,M,0.0,M,,*49
$GPRMC,221751,A,2459.8865,N,12117.7101,E,13.0,180.0,141123,,*2A
$GPGGA,221751,2459.8865,N,12117.7101,E,1,08,3.5,10.0,M,0.0,M,,*45
$GPRMC,221752,A,2459.8800,N,12117.7040,E,15.4,180.0,141123,,*2C
$GPGGA,221752,2459.8800,N,12117.7040,E,1,08,3.5,10.0,M,0.0,M,,*41
$GPRMC,221753,A,2459.8771,N,12117.6985,E,14.7,180.0,141123,,*27
$GPGGA,221753,2459.8771,N,12117.6985,E,1,08,3.5,10.0,M,0.0,M,,*48
$GPRMC,221754,A,2459.8769,N,12117.6797,E,15.8,180.0,141123,,*2A
$GPGGA,221754,2459.8769,N,12117.6797,E,1,08,3.5,10.0,M,0.0,M,,*4B
$GPRMC,221755,A,2459.8620,N,12117.6834,E,14.9,180.0,141123,,*21
$GPGGA,221755,2459.8620,N,12117.6834,E,1,08,3.5,10.0,M,0.0,M,,*40
$GPRMC,221756,A,2459.8586,N,12117.6996,E,16.9,180.0,141123,,*26
$GPGGA,221756,2459.8586,N,12117.6996,E,1,08,3.5,10.0,M,0.0,M,,*45
$GPRMC,221757,A,2459.8638,N,12117.6908,E,13.4,180.0,141123,,*2E
$GPGGA,221757,2459.8638,N,12117.6908,E,1,08,3.5,10.0,M,0.0,M,,*45
$GPRMC,221758,A,2459.8554,N,12117.6817,E,15.1,180.0,141123,,*24
$GPGGA,221758,2459.8554,N,12117.6817,E,1,08,3.5,10.0,M,0.0,M,,*4C
$GPRMC,221759,A,2459.8521,N,12117.6832,E,14.6,180.0,141123,,*26
$GPGGA,221759,2459.8521,N,12117.6832,E,1,08,3.5,10.0,M,0.0,M,,*48
$GPRMC,221800,A,2459.8469,N,12117.6875,E,11.1,180.0,141123,,*29
$GPGGA,221800,2459.8469,N,12117.6875,E,1,08,3.5,10.0,M,0.0,M,,*45
$GPRMC,221801,A,2459.8456,N,12117.6905,E,13.4,180.0,141123,,*25
$GPGGA,221801,2459.8456,N,12117.6905,E,1,08,3.5,10.0,M,0.0,M,,*4E
$GPRMC,221802,A,2459.8431,N,12117.6923,E,15.8,180.0,141123,,*29
$GPGGA,221802,2459.8431,N,12117.6923,E,1,08,3.5,10.0,M,0.0,M,,*48
$GPRMC,221803,A,2459.8419,N,12117.6963,E,16.9,180.0,141123,,*24
$GPGGA,221803,2459.8419,N,12117.6963,E,1,08,3.5,10.0,M,0.0,M,,*47
$GPRMC,221804,A,2459.8455,N,12117.7100,E,17.4,180.0,141123,,*2B
$GPGGA,221804,2459.8455,N,12117.7100,E,1,08,3.5,10.0,M,0.0,M,,*44
$GPRMC,221805,A,2459.8472,N,12117.7135,E,16.9,180.0,141123,,*25
$GPGGA,221805,2459.8472,N,12117.7135,E,1,08,3.5,10.0,M,0.0,M,,*46
$GPRMC,221806,A,2459.8314,N,12117.7030,E,13.4,180.0,141123,,*2D
$GPGGA,221806,2459.8314,N,12117.7030,E,1,08,3.5,10.0,M,0.0,M,,*46
$GPRMC,221807,A,2459.8384,N,12117.7026,E,15.6,180.0,141123,,*26
$GPGGA,221807,2459.8384,N,12117.7026,E,1,08,3.5,10.0,M,0.0,M,,*49
$GPRMC,221808,A,2459.8273,N,12117.6981,E,14.8,180.0,141123,,*2A
$GPGGA,221808,2459.8273,N,12117.6981,E,1,08,3.5,10.0,M,0.0,M,,*4A
$GPRMC,221809,A,2459.8130,N,12117.7098,E,11.3,180.0,141123,,*21
$GPGGA,221809,2459.8130,N,12117.7098,E,1,08,3.5,10.0,M,0.0,M,,*4F
$GPRMC,221810,A,2459.8005,N,12117.6983,E,13.2,180.0,141123,,*2F
$GPGGA,221810,2459.8005,N,12117.6983,E,1,08,3.5,10.0,M,0.0,M,,*42
$GPRMC,221811,A,2459.8103,N,12117.6979,E,12.8,180.0,141123,,*27
$GPGGA,221811,2459.8103,N,12117.6979,E,1,08,3.5,10.0,M,0.0,M,,*41
$GPRMC,221812,A,2459.8091,N,12117.7027,E,12.7,180.0,141123,,*22
$GPGGA,221812,2459.8091,N,12117.7027,E,1,08,3.5,10.0,M,0.0,M,,*4B
$GPRMC,221813,A,2459.8006,N,12117.7108,E,15.0,180.0,141123,,*21
$GPGGA,221813,2459.8006,N,12117.7108,E,1,08,3.5,10.0,M,0.0,M,,*48
$GPRMC,221814,A,2459.7838,N,12117.7139,E,15.9,180.0,141123,,*27
$GPGGA,221814,2459.7838,N,12117.7139,E,1,08,3.5,10.0,M,0.0,M,,*47
$GPRMC,221815,A,2459.7853,N,12117.6970,E,12.4,180.0,141123,,*25
$GPGGA,221815,2459.7853,N,12117.6970,E,1,08,3.5,10.0,M,0.0,M,,*4F
$GPRMC,221816,A,2459.7818,N,12117.7068,E,14.7,180.0,141123,,*2D
$GPGGA,221816,2459.7818,N,12117.7068,E,1,08,3.5,10.0,M,0.0,M,,*42
$GPRMC,221817,A,2459.7902,N,12117.7117,E,13.9,180.0,141123,,*26
$GPGGA,221817,2459.7902,N,12117.7117,E,1,08,3.5,10.0,M,0.0,M,,*40
$GPRMC,221818,A,2459.7864,N,12117.7218,E,16.2,180.0,141123,,*2A
$GPGGA,221818,2459.7864,N,12117.7218,E,1,08,3.5,10.0,M,0.0,M,,*42
$GPRMC,221819,A,2459.7836,N,12117.7182,E,13.0,180.0,141123,,*2B
$GPGGA,221819,2459.7836,N,12117.7182,E,1,08,3.5,10.0,M,0.0,M,,*44
$GPRMC,221820,A,2459.7951,N,12117.7098,E,11.7,180.0,141123,,*2E
$GPGGA,221820,2459.7951,N,12117.7098,E,1,08,3.5,10.0,M,0.0,M,,*44
$GPRMC,221821,A,2459.7948,N,12117.7369,E,14.1,180.0,141123,,*29
$GPGGA,221821,2459.7948,N,12117.7369,E,1,08,3.5,10.0,M,0.0,M,,*40
$GPRMC,221822,A,2459.7844,N,12117.7175,E,16.4,180.0,141123,,*2F
$GPGGA,221822,2459.7844,N,12117.7175,E,1,08,3.5,10.0,M,0.0,M,,*41
$GPRMC,221823,A,2459.7741,N,12117.7052,E,15.1,180.0,141123,,*26
$GPGGA,221823,2459.7741,N,12117.7052,E,1,08,3.5,10.0,M,0.0,M,,*4E
$GPRMC,221824,A,2459.7811,N,12117.7024,E,14.0,180.0,141123,,*2A
$GPGGA,221824,2459.7811,N,12117.7024,E,1,08,3.5,10.0,M,0.0,M,,*42
$GPRMC,221825,A,2459.7816,N,12117.6846,E,15.0,180.0,141123,,*20
$GPGGA,221825,2459.7816,N,12117.6846,E,1,08,3.5,10.0,M,0.0,M,,*49
$GPRMC,221826,A,2459.7675,N,12117.6874,E,14.2,180.0,141123,,*2A
$GPGGA,221826,2459.7675,N,12117.6874,E,1,08,3.5,10.0,M,0.0,M,,*40
$GPRMC,221827,A,2459.7595,N,12117.6834,E,16.5,180.0,141123,,*27
$GPGGA,221827,2459.7595,N,12117.6834,E,1,08,3.5,10.0,M,0.0,M,,*48
$GPRMC,221828,A,2459.7508,N,12117.6964,E,18.8,180.0,141123,,*2B
$GPGGA,221828,2459.7508,N,12117.6964,E,1,08,3.5,10.0,M,0.0,M,,*47
$GPRMC,221829,A,2459.7379,N,12117.7150,E,15.3,180.0,141123,,*22
$GPGGA,221829,2459.7379,N,12117.7150,E,1,08,3.5,10.0,M,0.0,M,,*48
$GPRMC,221830,A,2459.7375,N,12117.7097,E,13.2,180.0,141123,,*2B
$GPGGA,221830,2459.7375,N,12117.7097,E,1,08,3.5,10.0,M,0.0,M,,*46
$GPRMC,221831,A,2459.7239,N,12117.7247,E,12.7,180.0,141123,,*28
$GPGGA,221831,2459.7239,N,12117.7247,E,1,08,3.5,10.0,M,0.0,M,,*41
$GPRMC,221832,A,2459.7260,N,12117.7278,E,14.9,180.0,141123,,*23
$GPGGA,221832,2459.7260,N,12117.7278,E,1,08,3.5,10.0,M,0.0,M,,*42
$GPRMC,221833,A,2459.7304,N,12117.7272,E,14.7,180.0,141123,,*25
$GPGGA,221833,2459.7304,N,12117.7272,E,1,08,3.5,10.0,M,0.0,M,,*4A
$GPRMC,221834,A,2459.7225,N,12117.7155,E,17.0,180.0,141123,,*22
$GPGGA,221834,2459.7225,N,12117.7155,E,1,08,3.5,10.0,M,0.0,M,,*49
$GPRMC,221835,A,2459.7163,N,12117.7132,E,16.7,180.0,141123,,*25
$GPGGA,221835,2459.7163,N,12117.7132,E,1,08,3.5,10.0,M,0.0,M,,*48
$GPRMC,221836,A,2459.6983,N,12117.7168,E,17.0,180.0,141123,,*28
$GPGGA,221836,2459.6983,N,12117.7168,E,1,08,3.5,10.0,M,0.0,M,,*43
$GPRMC,221837,A,2459.6990,N,12117.7159,E,13.5,180.0,141123,,*28
$GPGGA,221837,2459.6990,N,12117.7159,E,1,08,3.5,10.0,M,0.0,M,,*42
$GPRMC,221838,A,2459.7008,N,12117.7215,E,10.4,180.0,141123,,*27
$GPGGA,221838,2459.7008,N,12117.7215,E,1,08,3.5,10.0,M,0.0,M,,*4F
$GPRMC,221839,A,2459.6886,N,12117.7140,E,12.7,180.0,141123,,*2B
$GPGGA,221839,2459.6886,N,12117.7140,E,1,08,3.5,10.0,M,0.0,M,,*42
$GPRMC,221840,A,2459.6862,N,12117.7163,E,9.2,180.0,141123,,*11
$GPGGA,221840,2459.6862,N,12117.7163,E,1,08,3.5,10.0,M,0.0,M,,*47
$GPRMC,221841,A,2459.6731,N,12117.6959,E,11.6,180.0,141123,,*24
$GPGGA,221841,2459.6731,N,12117.6959,E,1,08,3.5,10.0,M,0.0,M,,*4F
$GPRMC,221842,A,2459.6657,N,12117.7035,E,13.9,180.0,141123,,*29
$GPGGA,221842,2459.6657,N,12117.7035,E,1,08,3.5,10.0,M,0.0,M,,*4F
$GPRMC,221843,A,2459.6610,N,12117.7026,E,11.3,180.0,141123,,*21
$GPGGA,221843,2459.6610,N,12117.7026,E,1,08,3.5,10.0,M,0.0,M,,*4F
$GPRMC,221844,A,2459.6647,N,12117.7236,E,12.9,180.0,141123,,*2E
$GPGGA,221844,2459.6647,N,12117.7236,E,1,08,3.5,10.0,M,0.0,M,,*49
$GPRMC,221845,A,2459.6561,N,12117.7329,E,14.9,180.0,141123,,*21
$GPGGA,221845,2459.6561,N,12117.7329,E,1,08,3.5,10.0,M,0.0,M,,*40
$GPRMC,221846,A,2459.6549,N,12117.7235,E,14.3,180.0,141123,,*2E
$GPGGA,221846,2459.6549,N,12117.7235,E,1,08,3.5,10.0,M,0.0,M,,*45
$GPRMC,221847,A,2459.6568,N,12117.7162,E,14.5,180.0,141123,,*2B
$GPGGA,221847,2459.6568,N,12117.7162,E,1,08,3.5,10.0,M,0.0,M,,*46
$GPRMC,221848,A,2459.6557,N,12117.7186,E,14.8,180.0,141123,,*2F
$GPGGA,221848,2459.6557,N,12117.7186,E,1,08,3.5,10.0,M,0.0,M,,*4F
$GPRMC,221849,A,2459.6664,N,12117.7173,E,8.4,85.1,141123,,*23
$GPGGA,221849,2459.6664,N,12117.7173,E,1,08,3.5,10.0,M,0.0,M,,*47
$GPRMC,221850,A,2459.6656,N,12117.7241,E,10.7,85.1,141123,,*12
$GPGGA,221850,2459.6656,N,12117.7241,E,1,08,3.5,10.0,M,0.0,M,,*4C
$GPRMC,221851,A,2459.6674,N,12117.7144,E,13.0,85.1,141123,,*11
$GPGGA,221851,2459.6674,N,12117.7144,E,1,08,3.5,10.0,M,0.0,M,,*4B
$GPRMC,221852,A,2459.6665,N,12117.7198,E,13.2,85.1,141123,,*11
$GPGGA,221852,2459.6665,N,12117.7198,E,1,08,3.5,10.0,M,0.0,M,,*49
$GPRMC,221853,A,2459.6748,N,12117.7374,E,15.6,85.1,141123,,*1C
$GPGGA,221853,2459.6748,N,12117.7374,E,1,08,3.5,10.0,M,0.0,M,,*46
$GPRMC,221854,A,2459.6799,N,12117.7384,E,13.3,85.1,141123,,*1B
$GPGGA,221854,2459.6799,N,12117.7384,E,1,08,3.5,10.0,M,0.0,M,,*42
$GPRMC,221855,A,2459.6764,N,12117.7171,E,12.9,85.1,141123,,*1B
$GPGGA,221855,2459.6764,N,12117.7171,E,1,08,3.5,10.0,M,0.0,M,,*49
$GPRMC,221856,A,2459.6759,N,12117.7145,E,14.0,85.1,141123,,*1E
$GPGGA,221856,2459.6759,N,12117.7145,E,1,08,3.5,10.0,M,0.0,M,,*43
$GPRMC,221857,A,2459.6746,N,12117.7335,E,16.3,85.1,141123,,*15
$GPGGA,221857,2459.6746,N,12117.7335,E,1,08,3.5,10.0,M,0.0,M,,*49
$GPRMC,221858,A,2459.6774,N,12117.7443,E,18.6,85.1,141123,,*16
$GPGGA,221858,2459.6774,N,12117.7443,E,1,08,3.5,10.0,M,0.0,M,,*41
$GPRMC,221859,A,2459.6724,N,12117.7523,E,15.1,85.1,141123,,*1F
$GPGGA,221859,2459.6724,N,12117.7523,E,1,08,3.5,10.0,M,0.0,M,,*42
$GPRMC,221900,A,2459.6557,N,12117.7701,E,11.6,85.1,141123,,*15
$GPGGA,221900,2459.6557,N,12117.7701,E,1,08,3.5,10.0,M,0.0,M,,*4B
$GPRMC,221901,A,2459.6502,N,12117.7655,E,14.0,85.1,141123,,*17
$GPGGA,221901,2459.6502,N,12117.7655,E,1,08,3.5,10.0,M,0.0,M,,*4A
$GPRMC,221902,A,2459.6537,N,12117.7805,E,16.3,85.1,141123,,*18
$GPGGA,221902,2459.6537,N,12117.7805,E,1,08,3.5,10.0,M,0.0,M,,*44
$GPRMC,221903,A,2459.6619,N,12117.7872,E,17.9,85.1,141123,,*1D
$GPGGA,221903,2459.6619,N,12117.7872,E,1,08,3.5,10.0,M,0.0,M,,*4A
$GPRMC,221904,A,2459.6607,N,12117.7842,E,14.4,85.1,141123,,*18
$GPGGA,221904,2459.6607,N,12117.7842,E,1,08,3.5,10.0,M,0.0,M,,*41
$GPRMC,221905,A,2459.6659,N,12117.8016,E,16.7,85.1,141123,,*15
$GPGGA,221905,2459.6659,N,12117.8016,E,1,08,3.5,10.0,M,0.0,M,,*4D
$GPRMC,221906,A,2459.6775,N,12117.8132,E,16.2,85.1,141123,,*1B
$GPGGA,221906,2459.6775,N,12117.8132,E,1,08,3.5,10.0,M,0.0,M,,*46
$GPRMC,221907,A,2459.6752,N,12117.8097,E,12.7,85.1,141123,,*10
$GPGGA,221907,2459.6752,N,12117.8097,E,1,08,3.5,10.0,M,0.0,M,,*4C
$GPRMC,221908,A,2459.6780,N,12117.8118,E,12.4,85.1,141123,,*15
$GPGGA,221908,2459.6780,N,12117.8118,E,1,08,3.5,10.0,M,0.0,M,,*4A
$GPRMC,221909,A,2459.6747,N,12117.8100,E,12.0,85.1,141123,,*12
$GPGGA,221909,2459.6747,N,12117.8100,E,1,08,3.5,10.0,M,0.0,M,,*49
$GPRMC,221910,A,2459.6846,N,12117.8131,E,14.3,85.1,141123,,*13
$GPGGA,221910,2459.6846,N,12117.8131,E,1,08,3.5,10.0,M,0.0,M,,*4D
$GPRMC,221911,A,2459.6833,N,12117.7996,E,14.5,85.1,141123,,*1C
$GPGGA,221911,2459.6833,N,12117.7996,E,1,08,3.5,10.0,M,0.0,M,,*44
$GPRMC,221912,A,2459.6846,N,12117.8072,E,12.7,85.1,141123,,*15
$GPGGA,221912,2459.6846,N,12117.8072,E,1,08,3.5,10.0,M,0.0,M,,*49
$GPRMC,221913,A,2459.6832,N,12117.8080,E,15.1,85.1,141123,,*1B
$GPGGA,221913,2459.6832,N,12117.8080,E,1,08,3.5,10.0,M,0.0,M,,*46
$GPRMC,221914,A,2459.6843,N,12117.8134,E,16.7,85.1,141123,,*11
$GPGGA,221914,2459.6843,N,12117.8134,E,1,08,3.5,10.0,M,0.0,M,,*49
$GPRMC,221915,A,2459.6772,N,12117.8233,E,15.4,85.1,141123,,*19
$GPGGA,221915,2459.6772,N,12117.8233,E,1,08,3.5,10.0,M,0.0,M,,*41
$GPRMC,221916,A,2459.6851,N,12117.8272,E,13.7,85.1,141123,,*14
$GPGGA,221916,2459.6851,N,12117.8272,E,1,08,3.5,10.0,M,0.0,M,,*49
$GPRMC,221917,A,2459.6769,N,12117.8305,E,13.4,85.1,141123,,*13
$GPGGA,221917,2459.6769,N,12117.8305,E,1,08,3.5,10.0,M,0.0,M,,*4D
$GPRMC,221918,A,2459.6749,N,12117.8352,E,15.7,85.1,141123,,*19
$GPGGA,221918,2459.6749,N,12117.8352,E,1,08,3.5,10.0,M,0.0,M,,*42
$GPRMC,221919,A,2459.6760,N,12117.8331,E,15.8,85.1,141123,,*19
$GPGGA,221919,2459.6760,N,12117.8331,E,1,08,3.5,10.0,M,0.0,M,,*4D
$GPRMC,221920,A,2459.6692,N,12117.8507,E,16.8,85.1,141123,,*1F
$GPGGA,221920,2459.6692,N,12117.8507,E,1,08,3.5,10.0,M,0.0,M,,*48
$GPRMC,221921,A,2459.6669,N,12117.8531,E,15.3,85.1,141123,,*17
$GPGGA,221921,2459.6669,N,12117.8531,E,1,08,3.5,10.0,M,0.0,M,,*48
$GPRMC,221922,A,2459.6797,N,12117.8537,E,14.5,85.1,141123,,*15
$GPGGA,221922,2459.6797,N,12117.8537,E,1,08,3.5,10.0,M,0.0,M,,*4D
$GPRMC,221923,A,2459.6797,N,12117.8562,E,11.0,85.1,141123,,*14
$GPGGA,221923,2459.6797,N,12117.8562,E,1,08,3.5,10.0,M,0.0,M,,*4C
$GPRMC,221924,A,2459.6754,N,12117.8685,E,10.3,85.1,141123,,*14
$GPGGA,221924,2459.6754,N,12117.8685,E,1,08,3.5,10.0,M,0.0,M,,*4E
$GPRMC,221925,A,2459.6729,N,12117.8926,E,10.7,85.1,141123,,*1D
$GPGGA,221925,2459.6729,N,12117.8926,E,1,08,3.5,10.0,M,0.0,M,,*43
$GPRMC,221926,A,2459.6747,N,12117.8815,E,13.0,85.1,141123,,*13
$GPGGA,221926,2459.6747,N,12117.8815,E,1,08,3.5,10.0,M,0.0,M,,*49
$GPRMC,221927,A,2459.6766,N,12117.8775,E,15.4,85.1,141123,,*1A
$GPGGA,221927,2459.6766,N,12117.8775,E,1,08,3.5,10.0,M,0.0,M,,*42
$GPRMC,221928,A,2459.6801,N,12117.8848,E,11.9,85.1,141123,,*13
$GPGGA,221928,2459.6801,N,12117.8848,E,1,08,3.5,10.0,M,0.0,M,,*42
$GPRMC,221929,A,2459.6881,N,12117.8903,E,11.8,85.1,141123,,*15
$GPGGA,221929,2459.6881,N,12117.8903,E,1,08,3.5,10.0,M,0.0,M,,*45
$GPRMC,221930,A,2459.6841,N,12117.8882,E,14.1,85.1,141123,,*15
$GPGGA,221930,2459.6841,N,12117.8882,E,1,08,3.5,10.0,M,0.0,M,,*49
$GPRMC,221931,A,2459.6872,N,12117.8914,E,16.4,85.1,141123,,*1D
$GPGGA,221931,2459.6872,N,12117.8914,E,1,08,3.5,10.0,M,0.0,M,,*46
$GPRMC,221932,A,2459.6885,N,12117.8978,E,12.9,85.1,141123,,*15
$GPGGA,221932,2459.6885,N,12117.8978,E,1,08,3.5,10.0,M,0.0,M,,*47
$GPRMC,221933,A,2459.6924,N,12117.9005,E,15.3,85.1,141123,,*11
$GPGGA,221933,2459.6924,N,12117.9005,E,1,08,3.5,10.0,M,0.0,M,,*4E
$GPRMC,221934,A,2459.6763,N,12117.8916,E,11.8,85.1,141123,,*1E
$GPGGA,221934,2459.6763,N,12117.8916,E,1,08,3.5,10.0,M,0.0,M,,*4E
$GPRMC,221935,A,2459.6772,N,12117.9220,E,13.1,85.1,141123,,*1B
$GPGGA,221935,2459.6772,N,12117.9220,E,1,08,3.5,10.0,M,0.0,M,,*40
$GPRMC,221936,A,2459.6751,N,12117.9234,E,15.5,85.1,141123,,*1E
$GPGGA,221936,2459.6751,N,12117.9234,E,1,08,3.5,10.0,M,0.0,M,,*47
$GPRMC,221937,A,2459.6795,N,12117.9355,E,13.2,85.1,141123,,*10
$GPGGA,221937,2459.6795,N,12117.9355,E,1,08,3.5,10.0,M,0.0,M,,*48
$GPRMC,221938,A,2459.6509,N,12117.9371,E,12.9,85.1,141123,,*14
$GPGGA,221938,2459.6509,N,12117.9371,E,1,08,3.5,10.0,M,0.0,M,,*46
$GPRMC,221939,A,2459.6602,N,12117.9277,E,15.2,85.1,141123,,*16
$GPGGA,221939,2459.6602,N,12117.9277,E,1,08,3.5,10.0,M,0.0,M,,*48
$GPRMC,221940,A,2459.6777,N,12117.9329,E,17.6,85.1,141123,,*17
$GPGGA,221940,2459.6777,N,12117.9329,E,1,08,3.5,10.0,M,0.0,M,,*4F
$GPRMC,221941,A,2459.6801,N,12117.9478,E,16.7,85.1,141123,,*1B
$GPGGA,221941,2459.6801,N,12117.9478,E,1,08,3.5,10.0,M,0.0,M,,*43
$GPRMC,221942,A,2459.6767,N,12117.9516,E,13.2,85.1,141123,,*1E
$GPGGA,221942,2459.6767,N,12117.9516,E,1,08,3.5,10.0,M,0.0,M,,*46
$GPRMC,221943,A,2459.6725,N,12117.9547,E,15.6,85.1,141123,,*1F
$GPGGA,221943,2459.6725,N,12117.9547,E,1,08,3.5,10.0,M,0.0,M,,*45
$GPRMC,221944,A,2459.6684,N,12117.9463,E,15.0,85.1,141123,,*13
$GPGGA,221944,2459.6684,N,12117.9463,E,1,08,3.5,10.0,M,0.0,M,,*4F
$GPRMC,221945,A,2459.6742,N,12117.9550,E,17.0,85.1,141123,,*1A
$GPGGA,221945,2459.6742,N,12117.9550,E,1,08,3.5,10.0,M,0.0,M,,*44
$GPRMC,221946,A,2459.6771,N,12117.9552,E,13.6,85.1,141123,,*19
$GPGGA,221946,2459.6771,N,12117.9552,E,1,08,3.5,10.0,M,0.0,M,,*45
$GPRMC,221947,A,2459.6737,N,12117.9586,E,13.8,85.1,141123,,*1D
$GPGGA,221947,2459.6737,N,12117.9586,E,1,08,3.5,10.0,M,0.0,M,,*4F
$GPRMC,221948,A,2459.6676,N,12117.9551,E,16.1,85.1,141123,,*10
$GPGGA,221948,2459.6676,N,12117.9551,E,1,08,3.5,10.0,M,0.0,M,,*4E
$GPRMC,221949,A,2459.6734,N,12117.9785,E,17.1,85.1,141123,,*1C
$GPGGA,221949,2459.6734,N,12117.9785,E,1,08,3.5,10.0,M,0.0,M,,*43
$GPRMC,221950,A,2459.6753,N,12117.9812,E,16.6,85.1,141123,,*12
$GPGGA,221950,2459.6753,N,12117.9812,E,1,08,3.5,10.0,M,0.0,M,,*4B
$GPRMC,221951,A,2459.6800,N,12117.9966,E,18.9,85.1,141123,,*19
$GPGGA,221951,2459.6800,N,12117.9966,E,1,08,3.5,10.0,M,0.0,M,,*41
$GPRMC,221952,A,2459.6886,N,12117.9878,E,15.4,85.1,141123,,*1A
$GPGGA,221952,2459.6886,N,12117.9878,E,1,08,3.5,10.0,M,0.0,M,,*42
$GPRMC,221953,A,2459.6818,N,12117.9927,E,17.8,85.1,141123,,*19
$GPGGA,221953,2459.6818,N,12117.9927,E,1,08,3.5,10.0,M,0.0,M,,*4F
$GPRMC,221954,A,2459.6804,N,12118.0026,E,14.3,85.1,141123,,*15
$GPGGA,221954,2459.6804,N,12118.0026,E,1,08,3.5,10.0,M,0.0,M,,*4B
$GPRMC,221955,A,2459.6806,N,12118.0069,E,16.6,85.1,141123,,*1A
$GPGGA,221955,2459.6806,N,12118.0069,E,1,08,3.5,10.0,M,0.0,M,,*43
$GPRMC,221956,A,2459.6689,N,12118.0177,E,14.2,85.1,141123,,*18
$GPGGA,221956,2459.6689,N,12118.0177,E,1,08,3.5,10.0,M,0.0,M,,*47
$GPRMC,221957,A,2459.6567,N,12118.0237,E,16.5,85.1,141123,,*18
$GPGGA,221957,2459.6567,N,12118.0237,E,1,08,3.5,10.0,M,0.0,M,,*42
$GPRMC,221958,A,2459.6592,N,12118.0158,E,15.3,85.1,141123,,*12
$GPGGA,221958,2459.6592,N,12118.0158,E,1,08,3.5,10.0,M,0.0,M,,*4D
$GPRMC,221959,A,2459.6631,N,12118.0225,E,8.4,63.9,141123,,*2B
$GPGGA,221959,2459.6631,N,12118.0225,E,1,08,3.5,10.0,M,0.0,M,,*4F
$GPRMC,222000,A,2459.6783,N,12118.0181,E,10.7,63.9,141123,,*12
$GPGGA,222000,2459.6783,N,12118.0181,E,1,08,3.5,10.0,M,0.0,M,,*4C
$GPRMC,222001,A,2459.6853,N,12118.0290,E,13.0,63.9,141123,,*16
$GPGGA,222001,2459.6853,N,12118.0290,E,1,08,3.5,10.0,M,0.0,M,,*4C
$GPRMC,222002,A,2459.6953,N,12118.0127,E,15.4,63.9,141123,,*19
$GPGGA,222002,2459.6953,N,12118.0127,E,1,08,3.5,10.0,M,0.0,M,,*41
$GPRMC,222003,A,2459.6937,N,12118.0205,E,8.4,78.7,141123,,*21
$GPGGA,222003,2459.6937,N,12118.0205,E,1,08,3.5,10.0,M,0.0,M,,*41
$GPRMC,222004,A,2459.6851,N,12118.0340,E,10.7,78.7,141123,,*1D
$GPGGA,222004,2459.6851,N,12118.0340,E,1,08,3.5,10.0,M,0.0,M,,*47
$GPRMC,222005,A,2459.6804,N,12118.0398,E,13.0,78.7,141123,,*1D
$GPGGA,222005,2459.6804,N,12118.0398,E,1,08,3.5,10.0,M,0.0,M,,*43
$GPRMC,222006,A,2459.7012,N,12118.0430,E,15.4,78.7,141123,,*17
$GPGGA,222006,2459.7012,N,12118.0430,E,1,08,3.5,10.0,M,0.0,M,,*4B
$GPRMC,222007,A,2459.6993,N,12118.0571,E,8.4,94.9,141123,,*23
$GPGGA,222007,2459.6993,N,12118.0571,E,1,08,3.5,10.0,M,0.0,M,,*4F
$GPRMC,222008,A,2459.6985,N,12118.0453,E,10.7,94.9,141123,,*10
$GPGGA,222008,2459.6985,N,12118.0453,E,1,08,3.5,10.0,M,0.0,M,,*46
$GPRMC,222009,A,2459.6933,N,12118.0522,E,13.0,94.9,141123,,*1F
$GPGGA,222009,2459.6933,N,12118.0522,E,1,08,3.5,10.0,M,0.0,M,,*4D
$GPRMC,222010,A,2459.7005,N,12118.0511,E,14.4,94.9,141123,,*19
$GPGGA,222010,2459.7005,N,12118.0511,E,1,08,3.5,10.0,M,0.0,M,,*48
$GPRMC,222011,A,2459.6988,N,12118.0553,E,10.9,94.9,141123,,*1A
$GPGGA,222011,2459.6988,N,12118.0553,E,1,08,3.5,10.0,M,0.0,M,,*42
$GPRMC,222012,A,2459.6943,N,12118.0645,E,0.0,117.5,141123,,*14
$GPGGA,222012,2459.6943,N,12118.0645,E,1,08,3.5,10.0,M,0.0,M,,*42
$GPRMC,222013,A,2459.6891,N,12118.0552,E,0.0,117.5,141123,,*1E
$GPGGA,222013,2459.6891,N,12118.0552,E,1,08,3.5,10.0,M,0.0,M,,*48
$GPRMC,222014,A,2459.6870,N,12118.0476,E,0.0,117.5,141123,,*11
$GPGGA,222014,2459.6870,N,12118.0476,E,1,08,3.5,10.0,M,0.0,M,,*47
$GPRMC,222015,A,2459.6875,N,12118.0531,E,0.0,117.5,141123,,*17
$GPGGA,222015,2459.6875,N,12118.0531,E,1,08,3.5,10.0,M,0.0,M,,*41
$GPRMC,222016,A,2459.6836,N,12118.0370,E,0.0,117.5,141123,,*10
$GPGGA,222016,2459.6836,N,12118.0370,E,1,08,3.5,10.0,M,0.0,M,,*46
$GPRMC,222017,A,2459.6837,N,12118.0427,E,0.0,117.5,141123,,*15
$GPGGA,222017,2459.6837,N,12118.0427,E,1,08,3.5,10.0,M,0.0,M,,*43
$GPRMC,222018,A,2459.6816,N,12118.0384,E,0.0,117.5,141123,,*17
$GPGGA,222018,2459.6816,N,12118.0384,E,1,08,3.5,10.0,M,0.0,M,,*41
$GPRMC,222019,A,2459.6837,N,12118.0555,E,0.0,117.5,141123,,*1F
$GPGGA,222019,2459.6837,N,12118.0555,E,1,08,3.5,10.0,M,0.0,M,,*49
$GPRMC,222020,A,2459.6875,N,12118.0545,E,0.0,117.5,141123,,*12
$GPGGA,222020,2459.6875,N,12118.0545,E,1,08,3.5,10.0,M,0.0,M,,*44
$GPRMC,222021,A,2459.6952,N,12118.0514,E,0.0,117.5,141123,,*13
$GPGGA,222021,2459.6952,N,12118.0514,E,1,08,3.5,10.0,M,0.0,M,,*45
$GPRMC,222022,A,2459.7017,N,12118.0624,E,8.4,117.5,141123,,*15
$GPGGA,222022,2459.7017,N,12118.0624,E,1,08,3.5,10.0,M,0.0,M,,*4F
$GPRMC,222023,A,2459.6923,N,12118.0693,E,10.7,117.5,141123,,*2D
$GPGGA,222023,2459.6923,N,12118.0693,E,1,08,3.5,10.0,M,0.0,M,,*4D
$GPRMC,222024,A,2459.6856,N,12118.0757,E,13.0,117.5,141123,,*24
$GPGGA,222024,2459.6856,N,12118.0757,E,1,08,3.5,10.0,M,0.0,M,,*40
$GPRMC,222025,A,2459.6827,N,12118.0895,E,15.4,117.5,141123,,*20
$GPGGA,222025,2459.6827,N,12118.0895,E,1,08,3.5,10.0,M,0.0,M,,*46
$GPRMC,222026,A,2459.6713,N,12118.0835,E,12.5,117.5,141123,,*27
$GPGGA,222026,2459.6713,N,12118.0835,E,1,08,3.5,10.0,M,0.0,M,,*47
$GPRMC,222027,A,2459.6642,N,12118.0733,E,14.8,117.5,141123,,*21
$GPGGA,222027,2459.6642,N,12118.0733,E,1,08,3.5,10.0,M,0.0,M,,*4A
$GPRMC,222028,A,2459.6759,N,12118.0845,E,11.8,117.5,141123,,*2E
$GPGGA,222028,2459.6759,N,12118.0845,E,1,08,3.5,10.0,M,0.0,M,,*40
$GPRMC,222029,A,2459.6795,N,12118.0979,E,14.2,117.5,141123,,*2E
$GPGGA,222029,2459.6795,N,12118.0979,E,1,08,3.5,10.0,M,0.0,M,,*4F
$GPRMC,222030,A,2459.6842,N,12118.0912,E,14.7,117.5,141123,,*2B
$GPGGA,222030,2459.6842,N,12118.0912,E,1,08,3.5,10.0,M,0.0,M,,*4F
$GPRMC,222031,A,2459.6724,N,12118.0961,E,11.2,117.5,141123,,*21
$GPGGA,222031,2459.6724,N,12118.0961,E,1,08,3.5,10.0,M,0.0,M,,*45
$GPRMC,222032,A,2459.6804,N,12118.1175,E,12.9,117.5,141123,,*2B
$GPGGA,222032,2459.6804,N,12118.1175,E,1,08,3.5,10.0,M,0.0,M,,*47
$GPRMC,222033,A,2459.6750,N,12118.1021,E,11.5,117.5,141123,,*2B
$GPGGA,222033,2459.6750,N,12118.1021,E,1,08,3.5,10.0,M,0.0,M,,*48
$GPRMC,222034,A,2459.6705,N,12118.0970,E,13.8,117.5,141123,,*2F
$GPGGA,222034,2459.6705,N,12118.0970,E,1,08,3.5,10.0,M,0.0,M,,*43
$GPRMC,222035,A,2459.6604,N,12118.0982,E,16.1,117.5,141123,,*2F
$GPGGA,222035,2459.6604,N,12118.0982,E,1,08,3.5,10.0,M,0.0,M,,*4F
$GPRMC,222036,A,2459.6492,N,12118.1058,E,12.6,117.5,141123,,*2D
$GPGGA,222036,2459.6492,N,12118.1058,E,1,08,3.5,10.0,M,0.0,M,,*4E
$GPRMC,222037,A,2459.6449,N,12118.1144,E,15.0,117.5,141123,,*27
$GPGGA,222037,2459.6449,N,12118.1144,E,1,08,3.5,10.0,M,0.0,M,,*45
$GPRMC,222038,A,2459.6434,N,12118.1192,E,11.5,117.5,141123,,*28
$GPGGA,222038,2459.6434,N,12118.1192,E,1,08,3.5,10.0,M,0.0,M,,*4B
$GPRMC,222039,A,2459.6367,N,12118.1168,E,11.7,117.5,141123,,*2F
$GPGGA,222039,2459.6367,N,12118.1168,E,1,08,3.5,10.0,M,0.0,M,,*4E
$GPRMC,222040,A,2459.6472,N,12118.1171,E,13.2,117.5,141123,,*2D
$GPGGA,222040,2459.6472,N,12118.1171,E,1,08,3.5,10.0,M,0.0,M,,*4B
$GPRMC,222041,A,2459.6495,N,12118.1272,E,13.0,117.5,141123,,*27
$GPGGA,222041,2459.6495,N,12118.1272,E,1,08,3.5,10.0,M,0.0,M,,*43
$GPRMC,222042,A,2459.6603,N,12118.1141,E,12.7,117.5,141123,,*2C
$GPGGA,222042,2459.6603,N,12118.1141,E,1,08,3.5,10.0,M,0.0,M,,*4E
$GPRMC,222043,A,2459.6712,N,12118.1160,E,14.5,117.5,141123,,*2B
$GPGGA,222043,2459.6712,N,12118.1160,E,1,08,3.5,10.0,M,0.0,M,,*4D
$GPRMC,222044,A,2459.6637,N,12118.1203,E,8.4,139.0,141123,,*19
$GPGGA,222044,2459.6637,N,12118.1203,E,1,08,3.5,10.0,M,0.0,M,,*4A
$GPRMC,222045,A,2459.6561,N,12118.1207,E,10.7,139.0,141123,,*26
$GPGGA,222045,2459.6561,N,12118.1207,E,1,08,3.5,10.0,M,0.0,M,,*4F
$GPRMC,222046,A,2459.6351,N,12118.1190,E,13.0,139.0,141123,,*29
$GPGGA,222046,2459.6351,N,12118.1190,E,1,08,3.5,10.0,M,0.0,M,,*44
$GPRMC,222047,A,2459.6420,N,12118.1320,E,14.9,139.0,141123,,*2E
$GPGGA,222047,2459.6420,N,12118.1320,E,1,08,3.5,10.0,M,0.0,M,,*4D
$GPRMC,222048,A,2459.6557,N,12118.1352,E,16.5,139.0,141123,,*2B
$GPGGA,222048,2459.6557,N,12118.1352,E,1,08,3.5,10.0,M,0.0,M,,*46
$GPRMC,222049,A,2459.6536,N,12118.1250,E,17.3,139.0,141123,,*29
$GPGGA,222049,2459.6536,N,12118.1250,E,1,08,3.5,10.0,M,0.0,M,,*43
$GPRMC,222050,A,2459.6395,N,12118.1258,E,8.4,172.8,141123,,*18
$GPGGA,222050,2459.6395,N,12118.1258,E,1,08,3.5,10.0,M,0.0,M,,*4C
$GPRMC,222051,A,2459.6234,N,12118.1267,E,10.7,172.8,141123,,*25
$GPGGA,222051,2459.6234,N,12118.1267,E,1,08,3.5,10.0,M,0.0,M,,*4B
$GPRMC,222052,A,2459.6193,N,12118.1386,E,13.0,172.8,141123,,*22
$GPGGA,222052,2459.6193,N,12118.1386,E,1,08,3.5,10.0,M,0.0,M,,*48
$GPRMC,222053,A,2459.6167,N,12118.1406,E,15.1,172.8,141123,,*20
$GPGGA,222053,2459.6167,N,12118.1406,E,1,08,3.5,10.0,M,0.0,M,,*4D
$GPRMC,222054,A,2459.6256,N,12118.1358,E,15.0,172.8,141123,,*2B
$GPGGA,222054,2459.6256,N,12118.1358,E,1,08,3.5,10.0,M,0.0,M,,*47
$GPRMC,222055,A,2459.6133,N,12118.1320,E,11.5,172.8,141123,,*24
$GPGGA,222055,2459.6133,N,12118.1320,E,1,08,3.5,10.0,M,0.0,M,,*49
$GPRMC,222056,A,2459.6149,N,12118.1342,E,8.0,172.8,141123,,*13
$GPGGA,222056,2459.6149,N,12118.1342,E,1,08,3.5,10.0,M,0.0,M,,*43
$GPRMC,222057,A,2459.6247,N,12118.1423,E,0.0,267.1,141123,,*19
$GPGGA,222057,2459.6247,N,12118.1423,E,1,08,3.5,10.0,M,0.0,M,,*4F
$GPRMC,222058,A,2459.6284,N,12118.1393,E,0.0,267.1,141123,,*15
$GPGGA,222058,2459.6284,N,12118.1393,E,1,08,3.5,10.0,M,0.0,M,,*43
$GPRMC,222059,A,2459.6208,N,12118.1440,E,0.0,267.1,141123,,*19
$GPGGA,222059,2459.6208,N,12118.1440,E,1,08,3.5,10.0,M,0.0,M,,*4F
$GPRMC,222100,A,2459.6214,N,12118.1382,E,0.0,267.1,141123,,*10
$GPGGA,222100,2459.6214,N,12118.1382,E,1,08,3.5,10.0,M,0.0,M,,*46
$GPRMC,222101,A,2459.6308,N,12118.1320,E,0.0,267.1,141123,,*15
$GPGGA,222101,2459.6308,N,12118.1320,E,1,08,3.5,10.0,M,0.0,M,,*43
$GPRMC,222102,A,2459.6256,N,12118.1255,E,0.0,267.1,141123,,*1F
$GPGGA,222102,2459.6256,N,12118.1255,E,1,08,3.5,10.0,M,0.0,M,,*49
