$GPRMC,221320,A,2500.2603,N,12117.1866,E,8.4,347.1,141123,,*19
$GPGGA,221320,2500.2603,N,12117.1866,E,1,08,3.5,10.0,M,0.0,M,,*40
$GPRMC,221321,A,2500.2572,N,12117.1860,E,10.7,348.7,141123,,*28
$GPGGA,221321,2500.2572,N,12117.1860,E,1,08,3.5,10.0,M,0.0,M,,*42
$GPRMC,221322,A,2500.2589,N,12117.1949,E,13.0,346.0,141123,,*28
$GPGGA,221322,2500.2589,N,12117.1949,E,1,08,3.5,10.0,M,0.0,M,,*4F
$GPRMC,221323,A,2500.2535,N,12117.1763,E,13.9,346.1,141123,,*20
$GPGGA,221323,2500.2535,N,12117.1763,E,1,08,3.5,10.0,M,0.0,M,,*4F
$GPRMC,221324,A,2500.2674,N,12117.1717,E,13.8,347.4,141123,,*27
$GPGGA,221324,2500.2674,N,12117.1717,E,1,08,3.5,10.0,M,0.0,M,,*4D
$GPRMC,221325,A,2500.2652,N,12117.1904,E,13.5,349.2,141123,,*2B
$GPGGA,221325,2500.2652,N,12117.1904,E,1,08,3.5,10.0,M,0.0,M,,*44
$GPRMC,221326,A,2500.2672,N,12117.2011,E,15.9,353.0,141123,,*27
$GPGGA,221326,2500.2672,N,12117.2011,E,1,08,3.5,10.0,M,0.0,M,,*4B
$GPRMC,221327,A,2500.2653,N,12117.1919,E,12.4,352.6,141123,,*2A
$GPGGA,221327,2500.2653,N,12117.1919,E,1,08,3.5,10.0,M,0.0,M,,*4B
$GPRMC,221328,A,2500.2670,N,12117.1774,E,12.8,353.2,141123,,*28
$GPGGA,221328,2500.2670,N,12117.1774,E,1,08,3.5,10.0,M,0.0,M,,*40
$GPRMC,221329,A,2500.2688,N,12117.1716,E,15.2,351.5,141123,,*22
$GPGGA,221329,2500.2688,N,12117.1716,E,1,08,3.5,10.0,M,0.0,M,,*42
$GPRMC,221330,A,2500.2744,N,12117.1734,E,16.5,355.7,141123,,*29
$GPGGA,221330,2500.2744,N,12117.1734,E,1,08,3.5,10.0,M,0.0,M,,*4B
$GPRMC,221331,A,2500.2947,N,12117.1804,E,13.0,357.3,141123,,*2F
$GPGGA,221331,2500.2947,N,12117.1804,E,1,08,3.5,10.0,M,0.0,M,,*4B
$GPRMC,221332,A,2500.2943,N,12117.1757,E,15.3,358.8,141123,,*20
$GPGGA,221332,2500.2943,N,12117.1757,E,1,08,3.5,10.0,M,0.0,M,,*45
$GPRMC,221333,A,2500.2884,N,12117.1781,E,14.9,356.9,141123,,*24
$GPGGA,221333,2500.2884,N,12117.1781,E,1,08,3.5,10.0,M,0.0,M,,*45
$GPRMC,221334,A,2500.2980,N,12117.1585,E,16.0,355.0,141123,,*21
$GPGGA,221334,2500.2980,N,12117.1585,E,1,08,3.5,10.0,M,0.0,M,,*41
$GPRMC,221335,A,2500.3052,N,12117.1614,E,18.3,352.0,141123,,*26
$GPGGA,221335,2500.3052,N,12117.1614,E,1,08,3.5,10.0,M,0.0,M,,*4C
$GPRMC,221336,A,2500.2993,N,12117.1639,E,14.8,348.7,141123,,*24
$GPGGA,221336,2500.2993,N,12117.1639,E,1,08,3.5,10.0,M,0.0,M,,*45
$GPRMC,221337,A,2500.3186,N,12117.1721,E,11.3,344.8,141123,,*2D
$GPGGA,221337,2500.3186,N,12117.1721,E,1,08,3.5,10.0,M,0.0,M,,*41
$GPRMC,221338,A,2500.3315,N,12117.1698,E,13.6,347.3,141123,,*26
$GPGGA,221338,2500.3315,N,12117.1698,E,1,08,3.5,10.0,M,0.0,M,,*45
$GPRMC,221339,A,2500.3439,N,12117.1614,E,13.2,341.4,141123,,*2F
$GPGGA,221339,2500.3439,N,12117.1614,E,1,08,3.5,10.0,M,0.0,M,,*49
$GPRMC,221340,A,2500.3502,N,12117.1730,E,13.9,342.1,141123,,*22
$GPGGA,221340,2500.3502,N,12117.1730,E,1,08,3.5,10.0,M,0.0,M,,*49
$GPRMC,221341,A,2500.3598,N,12117.1757,E,16.2,349.5,141123,,*20
$GPGGA,221341,2500.3598,N,12117.1757,E,1,08,3.5,10.0,M,0.0,M,,*4A
$GPRMC,221342,A,2500.3748,N,12117.1820,E,16.3,348.0,141123,,*26
$GPGGA,221342,2500.3748,N,12117.1820,E,1,08,3.5,10.0,M,0.0,M,,*49
$GPRMC,221343,A,2500.3643,N,12117.1915,E,8.4,83.6,141123,,*20
$GPGGA,221343,2500.3643,N,12117.1915,E,1,08,3.5,10.0,M,0.0,M,,*45
$GPRMC,221344,A,2500.3536,N,12117.1782,E,10.7,81.8,141123,,*10
$GPGGA,221344,2500.3536,N,12117.1782,E,1,08,3.5,10.0,M,0.0,M,,*43
$GPRMC,221345,A,2500.3468,N,12117.1904,E,13.0,80.4,141123,,*12
$GPGGA,221345,2500.3468,N,12117.1904,E,1,08,3.5,10.0,M,0.0,M,,*48
$GPRMC,221346,A,2500.3462,N,12117.1785,E,15.4,80.1,141123,,*1B
$GPGGA,221346,2500.3462,N,12117.1785,E,1,08,3.5,10.0,M,0.0,M,,*46
$GPRMC,221347,A,2500.3493,N,12117.2013,E,17.7,83.5,141123,,*19
$GPGGA,221347,2500.3493,N,12117.2013,E,1,08,3.5,10.0,M,0.0,M,,*42
$GPRMC,221348,A,2500.3459,N,12117.1992,E,17.6,78.7,141123,,*14
$GPGGA,221348,2500.3459,N,12117.1992,E,1,08,3.5,10.0,M,0.0,M,,*48
$GPRMC,221349,A,2500.3533,N,12117.2024,E,17.2,74.8,141123,,*18
$GPGGA,221349,2500.3533,N,12117.2024,E,1,08,3.5,10.0,M,0.0,M,,*43
$GPRMC,221350,A,2500.3475,N,12117.1995,E,17.0,74.9,141123,,*10
$GPGGA,221350,2500.3475,N,12117.1995,E,1,08,3.5,10.0,M,0.0,M,,*48
$GPRMC,221351,A,2500.3509,N,12117.2152,E,15.3,81.6,141123,,*1F
$GPGGA,221351,2500.3509,N,12117.2152,E,1,08,3.5,10.0,M,0.0,M,,*43
$GPRMC,221352,A,2500.3566,N,12117.2069,E,17.7,82.9,141123,,*16
$GPGGA,221352,2500.3566,N,12117.2069,E,1,08,3.5,10.0,M,0.0,M,,*40
$GPRMC,221353,A,2500.3473,N,12117.2253,E,14.2,78.8,141123,,*1B
$GPGGA,221353,2500.3473,N,12117.2253,E,1,08,3.5,10.0,M,0.0,M,,*4F
$GPRMC,221354,A,2500.3352,N,12117.2375,E,16.5,78.2,141123,,*12
$GPGGA,221354,2500.3352,N,12117.2375,E,1,08,3.5,10.0,M,0.0,M,,*49
$GPRMC,221355,A,2500.3349,N,12117.2428,E,18.8,82.0,141123,,*12
$GPGGA,221355,2500.3349,N,12117.2428,E,1,08,3.5,10.0,M,0.0,M,,*4D
$GPRMC,221356,A,2500.3486,N,12117.2305,E,20.8,81.3,141123,,*16
$GPGGA,221356,2500.3486,N,12117.2305,E,1,08,3.5,10.0,M,0.0,M,,*42
$GPRMC,221357,A,2500.3363,N,12117.2442,E,17.3,79.3,141123,,*17
$GPGGA,221357,2500.3363,N,12117.2442,E,1,08,3.5,10.0,M,0.0,M,,*4B
$GPRMC,221358,A,2500.3310,N,12117.2500,E,13.8,80.7,141123,,*16
$GPGGA,221358,2500.3310,N,12117.2500,E,1,08,3.5,10.0,M,0.0,M,,*47
$GPRMC,221359,A,2500.3413,N,12117.2550,E,11.8,81.4,141123,,*16
$GPGGA,221359,2500.3413,N,12117.2550,E,1,08,3.5,10.0,M,0.0,M,,*47
$GPRMC,221400,A,2500.3453,N,12117.2494,E,10.9,85.7,141123,,*17
$GPGGA,221400,2500.3453,N,12117.2494,E,1,08,3.5,10.0,M,0.0,M,,*41
$GPRMC,221401,A,2500.3568,N,12117.2474,E,10.1,81.7,141123,,*1D
$GPGGA,221401,2500.3568,N,12117.2474,E,1,08,3.5,10.0,M,0.0,M,,*47
$GPRMC,221402,A,2500.3549,N,12117.2675,E,9.3,88.9,141123,,*23
$GPGGA,221402,2500.3549,N,12117.2675,E,1,08,3.5,10.0,M,0.0,M,,*44
$GPRMC,221403,A,2500.3465,N,12117.2612,E,8.6,88.2,141123,,*23
$GPGGA,221403,2500.3465,N,12117.2612,E,1,08,3.5,10.0,M,0.0,M,,*4B
$GPRMC,221404,A,2500.3376,N,12117.2668,E,8.0,82.1,141123,,*23
$GPGGA,221404,2500.3376,N,12117.2668,E,1,08,3.5,10.0,M,0.0,M,,*44
$GPRMC,221405,A,2500.3409,N,12117.2578,E,7.4,77.8,141123,,*27
$GPGGA,221405,2500.3409,N,12117.2578,E,1,08,3.5,10.0,M,0.0,M,,*48
$GPRMC,221406,A,2500.3481,N,12117.2673,E,6.8,76.7,141123,,*2F
$GPGGA,221406,2500.3481,N,12117.2673,E,1,08,3.5,10.0,M,0.0,M,,*43
$GPRMC,221407,A,2500.3479,N,12117.2774,E,6.3,80.7,141123,,*2D
$GPGGA,221407,2500.3479,N,12117.2774,E,1,08,3.5,10.0,M,0.0,M,,*43
$GPRMC,221408,A,2500.3432,N,12117.2660,E,5.8,77.8,141123,,*26
$GPGGA,221408,2500.3432,N,12117.2660,E,1,08,3.5,10.0,M,0.0,M,,*47
$GPRMC,221409,A,2500.3552,N,12117.2674,E,5.4,77.5,141123,,*24
$GPGGA,221409,2500.3552,N,12117.2674,E,1,08,3.5,10.0,M,0.0,M,,*44
$GPRMC,221410,A,2500.3521,N,12117.2808,E,5.0,80.7,141123,,*23
$GPGGA,221410,2500.3521,N,12117.2808,E,1,08,3.5,10.0,M,0.0,M,,*4D
$GPRMC,221411,A,2500.3580,N,12117.2908,E,4.6,74.3,141123,,*20
$GPGGA,221411,2500.3580,N,12117.2908,E,1,08,3.5,10.0,M,0.0,M,,*46
$GPRMC,221412,A,2500.3638,N,12117.2776,E,0.0,89.1,141123,,*26
$GPGGA,221412,2500.3638,N,12117.2776,E,1,08,3.5,10.0,M,0.0,M,,*42
$GPRMC,221413,A,2500.3742,N,12117.2747,E,0.0,84.1,141123,,*24
$GPGGA,221413,2500.3742,N,12117.2747,E,1,08,3.5,10.0,M,0.0,M,,*4D
$GPRMC,221414,A,2500.3554,N,12117.2694,E,0.0,86.0,141123,,*2A
$GPGGA,221414,2500.3554,N,12117.2694,E,1,08,3.5,10.0,M,0.0,M,,*40
$GPRMC,221415,A,2500.3533,N,12117.2695,E,0.0,82.9,141123,,*26
$GPGGA,221415,2500.3533,N,12117.2695,E,1,08,3.5,10.0,M,0.0,M,,*41
$GPRMC,221416,A,2500.3585,N,12117.2762,E,0.0,80.8,141123,,*22
$GPGGA,221416,2500.3585,N,12117.2762,E,1,08,3.5,10.0,M,0.0,M,,*46
$GPRMC,221417,A,2500.3577,N,12117.2730,E,0.0,83.9,141123,,*2B
$GPGGA,221417,2500.3577,N,12117.2730,E,1,08,3.5,10.0,M,0.0,M,,*4D
$GPRMC,221418,A,2500.3650,N,12117.2742,E,0.0,85.3,141123,,*2B
$GPGGA,221418,2500.3650,N,12117.2742,E,1,08,3.5,10.0,M,0.0,M,,*41
$GPRMC,221419,A,2500.3533,N,12117.2866,E,8.4,92.1,141123,,*2D
$GPGGA,221419,2500.3533,N,12117.2866,E,1,08,3.5,10.0,M,0.0,M,,*4F
$GPRMC,221420,A,2500.3488,N,12117.2890,E,10.7,92.6,141123,,*12
$GPGGA,221420,2500.3488,N,12117.2890,E,1,08,3.5,10.0,M,0.0,M,,*4D
$GPRMC,221421,A,2500.3483,N,12117.3057,E,13.0,92.5,141123,,*1D
$GPGGA,221421,2500.3483,N,12117.3057,E,1,08,3.5,10.0,M,0.0,M,,*45
$GPRMC,221422,A,2500.3550,N,12117.3105,E,15.4,95.1,141123,,*16
$GPGGA,221422,2500.3550,N,12117.3105,E,1,08,3.5,10.0,M,0.0,M,,*4F
$GPRMC,221423,A,2500.3626,N,12117.3033,E,11.9,98.8,141123,,*1C
$GPGGA,221423,2500.3626,N,12117.3033,E,1,08,3.5,10.0,M,0.0,M,,*48
$GPRMC,221424,A,2500.3627,N,12117.3158,E,14.2,99.9,141123,,*18
$GPGGA,221424,2500.3627,N,12117.3158,E,1,08,3.5,10.0,M,0.0,M,,*42
$GPRMC,221425,A,2500.3478,N,12117.3115,E,13.8,96.4,141123,,*17
$GPGGA,221425,2500.3478,N,12117.3115,E,1,08,3.5,10.0,M,0.0,M,,*42
$GPRMC,221426,A,2500.3467,N,12117.3225,E,16.1,98.7,141123,,*1B
$GPGGA,221426,2500.3467,N,12117.3225,E,1,08,3.5,10.0,M,0.0,M,,*4F
$GPRMC,221427,A,2500.3591,N,12117.3190,E,14.9,97.9,141123,,*14
$GPGGA,221427,2500.3591,N,12117.3190,E,1,08,3.5,10.0,M,0.0,M,,*4B
$GPRMC,221428,A,2500.3548,N,12117.3325,E,17.2,90.9,141123,,*1C
$GPGGA,221428,2500.3548,N,12117.3325,E,1,08,3.5,10.0,M,0.0,M,,*4C
$GPRMC,221429,A,2500.3462,N,12117.3404,E,16.8,93.0,141123,,*11
$GPGGA,221429,2500.3462,N,12117.3404,E,1,08,3.5,10.0,M,0.0,M,,*40
$GPRMC,221430,A,2500.3515,N,12117.3418,E,18.8,89.8,141123,,*18
$GPGGA,221430,2500.3515,N,12117.3418,E,1,08,3.5,10.0,M,0.0,M,,*44
$GPRMC,221431,A,2500.3618,N,12117.3429,E,15.3,85.2,141123,,*15
$GPGGA,221431,2500.3618,N,12117.3429,E,1,08,3.5,10.0,M,0.0,M,,*49
$GPRMC,221432,A,2500.3625,N,12117.3459,E,15.2,75.2,141123,,*11
$GPGGA,221432,2500.3625,N,12117.3459,E,1,08,3.5,10.0,M,0.0,M,,*43
$GPRMC,221433,A,2500.3639,N,12117.3544,E,17.5,82.3,141123,,*1C
$GPGGA,221433,2500.3639,N,12117.3544,E,1,08,3.5,10.0,M,0.0,M,,*42
$GPRMC,221434,A,2500.3650,N,12117.3576,E,16.0,82.5,141123,,*17
$GPGGA,221434,2500.3650,N,12117.3576,E,1,08,3.5,10.0,M,0.0,M,,*4B
$GPRMC,221435,A,2500.3588,N,12117.3482,E,14.0,83.2,141123,,*1E
$GPGGA,221435,2500.3588,N,12117.3482,E,1,08,3.5,10.0,M,0.0,M,,*46
$GPRMC,221436,A,2500.3652,N,12117.3478,E,13.7,82.7,141123,,*18
$GPGGA,221436,2500.3652,N,12117.3478,E,1,08,3.5,10.0,M,0.0,M,,*44
$GPRMC,221437,A,2500.3701,N,12117.3487,E,16.0,87.9,141123,,*17
$GPGGA,221437,2500.3701,N,12117.3487,E,1,08,3.5,10.0,M,0.0,M,,*42
$GPRMC,221438,A,2500.3661,N,12117.3602,E,12.5,89.5,141123,,*13
$GPGGA,221438,2500.3661,N,12117.3602,E,1,08,3.5,10.0,M,0.0,M,,*45
$GPRMC,221439,A,2500.3733,N,12117.3801,E,13.5,86.5,141123,,*17
$GPGGA,221439,2500.3733,N,12117.3801,E,1,08,3.5,10.0,M,0.0,M,,*4F
$GPRMC,221440,A,2500.3690,N,12117.3821,E,8.4,102.7,141123,,*17
$GPGGA,221440,2500.3690,N,12117.3821,E,1,08,3.5,10.0,M,0.0,M,,*4B
$GPRMC,221441,A,2500.3670,N,12117.3786,E,10.7,108.9,141123,,*24
$GPGGA,221441,2500.3670,N,12117.3786,E,1,08,3.5,10.0,M,0.0,M,,*46
$GPRMC,221442,A,2500.3684,N,12117.3933,E,13.0,110.8,141123,,*20
$GPGGA,221442,2500.3684,N,12117.3933,E,1,08,3.5,10.0,M,0.0,M,,*4E
$GPRMC,221443,A,2500.3631,N,12117.4005,E,13.3,114.7,141123,,*2C
$GPGGA,221443,2500.3631,N,12117.4005,E,1,08,3.5,10.0,M,0.0,M,,*4A
$GPRMC,221444,A,2500.3506,N,12117.3963,E,15.0,114.0,141123,,*20
$GPGGA,221444,2500.3506,N,12117.3963,E,1,08,3.5,10.0,M,0.0,M,,*44
$GPRMC,221445,A,2500.3483,N,12117.4034,E,17.3,109.5,141123,,*29
$GPGGA,221445,2500.3483,N,12117.4034,E,1,08,3.5,10.0,M,0.0,M,,*45
$GPRMC,221446,A,2500.3451,N,12117.3876,E,13.8,110.4,141123,,*2A
$GPGGA,221446,2500.3451,N,12117.3876,E,1,08,3.5,10.0,M,0.0,M,,*40
$GPRMC,221447,A,2500.3551,N,12117.3930,E,13.4,109.7,141123,,*2E
$GPGGA,221447,2500.3551,N,12117.3930,E,1,08,3.5,10.0,M,0.0,M,,*43
$GPRMC,221448,A,2500.3471,N,12117.4052,E,15.6,106.6,141123,,*22
$GPGGA,221448,2500.3471,N,12117.4052,E,1,08,3.5,10.0,M,0.0,M,,*45
$GPRMC,221449,A,2500.3445,N,12117.4118,E,17.9,107.5,141123,,*24
$GPGGA,221449,2500.3445,N,12117.4118,E,1,08,3.5,10.0,M,0.0,M,,*4C
$GPRMC,221450,A,2500.3361,N,12117.4126,E,17.3,106.9,141123,,*27
$GPGGA,221450,2500.3361,N,12117.4126,E,1,08,3.5,10.0,M,0.0,M,,*48
$GPRMC,221451,A,2500.3316,N,12117.4220,E,13.8,106.6,141123,,*23
$GPGGA,221451,2500.3316,N,12117.4220,E,1,08,3.5,10.0,M,0.0,M,,*4C
$GPRMC,221452,A,2500.3489,N,12117.4136,E,14.9,106.1,141123,,*24
$GPGGA,221452,2500.3489,N,12117.4136,E,1,08,3.5,10.0,M,0.0,M,,*4A
$GPRMC,221453,A,2500.3560,N,12117.4163,E,14.5,103.3,141123,,*28
$GPGGA,221453,2500.3560,N,12117.4163,E,1,08,3.5,10.0,M,0.0,M,,*4D
$GPRMC,221454,A,2500.3544,N,12117.4272,E,8.4,109.6,141123,,*19
$GPGGA,221454,2500.3544,N,12117.4272,E,1,08,3.5,10.0,M,0.0,M,,*4F
$GPRMC,221455,A,2500.3421,N,12117.4430,E,10.7,111.8,141123,,*27
$GPGGA,221455,2500.3421,N,12117.4430,E,1,08,3.5,10.0,M,0.0,M,,*4C
$GPRMC,221456,A,2500.3394,N,12117.4490,E,11.5,117.7,141123,,*2D
$GPGGA,221456,2500.3394,N,12117.4490,E,1,08,3.5,10.0,M,0.0,M,,*4C
$GPRMC,221457,A,2500.3205,N,12117.4460,E,13.3,114.5,141123,,*2F
$GPGGA,221457,2500.3205,N,12117.4460,E,1,08,3.5,10.0,M,0.0,M,,*4B
$GPRMC,221458,A,2500.3210,N,12117.4406,E,13.8,115.3,141123,,*28
$GPGGA,221458,2500.3210,N,12117.4406,E,1,08,3.5,10.0,M,0.0,M,,*40
$GPRMC,221459,A,2500.3312,N,12117.4497,E,16.2,113.4,141123,,*2C
$GPGGA,221459,2500.3312,N,12117.4497,E,1,08,3.5,10.0,M,0.0,M,,*4A
$GPRMC,221500,A,2500.3363,N,12117.4375,E,12.7,114.3,141123,,*2D
$GPGGA,221500,2500.3363,N,12117.4375,E,1,08,3.5,10.0,M,0.0,M,,*4A
$GPRMC,221501,A,2500.3327,N,12117.4525,E,15.0,115.9,141123,,*24
$GPGGA,221501,2500.3327,N,12117.4525,E,1,08,3.5,10.0,M,0.0,M,,*48
$GPRMC,221502,A,2500.3241,N,12117.4617,E,11.5,116.0,141123,,*2F
$GPGGA,221502,2500.3241,N,12117.4617,E,1,08,3.5,10.0,M,0.0,M,,*48
$GPRMC,221503,A,2500.3231,N,12117.4590,E,13.8,116.7,141123,,*2D
$GPGGA,221503,2500.3231,N,12117.4590,E,1,08,3.5,10.0,M,0.0,M,,*42
$GPRMC,221504,A,2500.3205,N,12117.4718,E,14.4,118.5,141123,,*28
$GPGGA,221504,2500.3205,N,12117.4718,E,1,08,3.5,10.0,M,0.0,M,,*40
$GPRMC,221505,A,2500.3095,N,12117.4762,E,12.0,119.0,141123,,*29
$GPGGA,221505,2500.3095,N,12117.4762,E,1,08,3.5,10.0,M,0.0,M,,*47
$GPRMC,221506,A,2500.3059,N,12117.4782,E,14.3,125.3,141123,,*2D
$GPGGA,221506,2500.3059,N,12117.4782,E,1,08,3.5,10.0,M,0.0,M,,*4A
$GPRMC,221507,A,2500.3045,N,12117.4761,E,16.6,127.0,141123,,*2A
$GPGGA,221507,2500.3045,N,12117.4761,E,1,08,3.5,10.0,M,0.0,M,,*4B
$GPRMC,221508,A,2500.2948,N,12117.4840,E,13.1,127.0,141123,,*2E
$GPGGA,221508,2500.2948,N,12117.4840,E,1,08,3.5,10.0,M,0.0,M,,*4D
$GPRMC,221509,A,2500.3122,N,12117.4876,E,15.5,120.3,141123,,*29
$GPGGA,221509,2500.3122,N,12117.4876,E,1,08,3.5,10.0,M,0.0,M,,*4C
$GPRMC,221510,A,2500.2922,N,12117.4786,E,15.1,121.9,141123,,*27
$GPGGA,221510,2500.2922,N,12117.4786,E,1,08,3.5,10.0,M,0.0,M,,*4D
$GPRMC,221511,A,2500.2952,N,12117.4791,E,13.9,120.6,141123,,*27
$GPGGA,221511,2500.2952,N,12117.4791,E,1,08,3.5,10.0,M,0.0,M,,*4D
$GPRMC,221512,A,2500.2835,N,12117.4903,E,12.9,115.5,141123,,*25
$GPGGA,221512,2500.2835,N,12117.4903,E,1,08,3.5,10.0,M,0.0,M,,*4B
$GPRMC,221513,A,2500.2898,N,12117.4884,E,11.9,115.3,141123,,*28
$GPGGA,221513,2500.2898,N,12117.4884,E,1,08,3.5,10.0,M,0.0,M,,*43
$GPRMC,221514,A,2500.2904,N,12117.4922,E,11.0,117.0,141123,,*2E
$GPGGA,221514,2500.2904,N,12117.4922,E,1,08,3.5,10.0,M,0.0,M,,*4D
$GPRMC,221515,A,2500.2939,N,12117.4875,E,10.2,114.8,141123,,*2A
$GPGGA,221515,2500.2939,N,12117.4875,E,1,08,3.5,10.0,M,0.0,M,,*41
$GPRMC,221516,A,2500.2979,N,12117.4841,E,9.4,113.7,141123,,*1C
$GPGGA,221516,2500.2979,N,12117.4841,E,1,08,3.5,10.0,M,0.0,M,,*41
$GPRMC,221517,A,2500.2995,N,12117.5056,E,8.7,112.1,141123,,*15
$GPGGA,221517,2500.2995,N,12117.5056,E,1,08,3.5,10.0,M,0.0,M,,*4D
$GPRMC,221518,A,2500.2985,N,12117.5002,E,8.1,115.2,141123,,*18
$GPGGA,221518,2500.2985,N,12117.5002,E,1,08,3.5,10.0,M,0.0,M,,*42
$GPRMC,221519,A,2500.3019,N,12117.5068,E,7.5,114.4,141123,,*14
$GPGGA,221519,2500.3019,N,12117.5068,E,1,08,3.5,10.0,M,0.0,M,,*42
$GPRMC,221520,A,2500.3012,N,12117.5050,E,6.9,114.7,141123,,*10
$GPGGA,221520,2500.3012,N,12117.5050,E,1,08,3.5,10.0,M,0.0,M,,*48
$GPRMC,221521,A,2500.2965,N,12117.5120,E,6.4,118.6,141123,,*1F
$GPGGA,221521,2500.2965,N,12117.5120,E,1,08,3.5,10.0,M,0.0,M,,*47
$GPRMC,221522,A,2500.2923,N,12117.5047,E,5.9,120.5,141123,,*18
$GPGGA,221522,2500.2923,N,12117.5047,E,1,08,3.5,10.0,M,0.0,M,,*46
$GPRMC,221523,A,2500.2836,N,12117.5100,E,5.5,113.5,141123,,*12
$GPGGA,221523,2500.2836,N,12117.5100,E,1,08,3.5,10.0,M,0.0,M,,*40
$GPRMC,221524,A,2500.2707,N,12117.5157,E,5.1,113.4,141123,,*1F
$GPGGA,221524,2500.2707,N,12117.5157,E,1,08,3.5,10.0,M,0.0,M,,*48
$GPRMC,221525,A,2500.2837,N,12117.4985,E,4.7,111.7,141123,,*12
$GPGGA,221525,2500.2837,N,12117.4985,E,1,08,3.5,10.0,M,0.0,M,,*43
$GPRMC,221526,A,2500.2790,N,12117.5007,E,0.0,122.2,141123,,*17
$GPGGA,221526,2500.2790,N,12117.5007,E,1,08,3.5,10.0,M,0.0,M,,*40
$GPRMC,221527,A,2500.2816,N,12117.5054,E,0.0,123.1,141123,,*13
$GPGGA,221527,2500.2816,N,12117.5054,E,1,08,3.5,10.0,M,0.0,M,,*46
$GPRMC,221528,A,2500.2890,N,12117.5113,E,0.0,127.4,141123,,*11
$GPGGA,221528,2500.2890,N,12117.5113,E,1,08,3.5,10.0,M,0.0,M,,*45
$GPRMC,221529,A,2500.2993,N,12117.5218,E,0.0,131.6,141123,,*1F
$GPGGA,221529,2500.2993,N,12117.5218,E,1,08,3.5,10.0,M,0.0,M,,*4E
$GPRMC,221530,A,2500.2914,N,12117.5168,E,0.0,134.7,141123,,*18
$GPGGA,221530,2500.2914,N,12117.5168,E,1,08,3.5,10.0,M,0.0,M,,*4D
$GPRMC,221531,A,2500.2991,N,12117.5184,E,0.0,129.2,141123,,*1F
$GPGGA,221531,2500.2991,N,12117.5184,E,1,08,3.5,10.0,M,0.0,M,,*43
$GPRMC,221532,A,2500.2988,N,12117.5182,E,0.0,126.7,141123,,*18
$GPGGA,221532,2500.2988,N,12117.5182,E,1,08,3.5,10.0,M,0.0,M,,*4E
$GPRMC,221533,A,2500.2978,N,12117.5280,E,0.0,124.6,141123,,*14
$GPGGA,221533,2500.2978,N,12117.5280,E,1,08,3.5,10.0,M,0.0,M,,*41
$GPRMC,221534,A,2500.2940,N,12117.5406,E,8.4,129.5,141123,,*12
$GPGGA,221534,2500.2940,N,12117.5406,E,1,08,3.5,10.0,M,0.0,M,,*45
$GPRMC,221535,A,2500.2948,N,12117.5461,E,10.7,125.6,141123,,*2F
$GPGGA,221535,2500.2948,N,12117.5461,E,1,08,3.5,10.0,M,0.0,M,,*4D
$GPRMC,221536,A,2500.2990,N,12117.5425,E,10.7,122.8,141123,,*20
$GPGGA,221536,2500.2990,N,12117.5425,E,1,08,3.5,10.0,M,0.0,M,,*4B
$GPRMC,221537,A,2500.2992,N,12117.5425,E,8.8,123.3,141123,,*1F
$GPGGA,221537,2500.2992,N,12117.5425,E,1,08,3.5,10.0,M,0.0,M,,*48
$GPRMC,221538,A,2500.2940,N,12117.5424,E,11.1,122.8,141123,,*25
$GPGGA,221538,2500.2940,N,12117.5424,E,1,08,3.5,10.0,M,0.0,M,,*49
$GPRMC,221539,A,2500.3042,N,12117.5482,E,13.5,121.1,141123,,*2E
$GPGGA,221539,2500.3042,N,12117.5482,E,1,08,3.5,10.0,M,0.0,M,,*4E
$GPRMC,221540,A,2500.2925,N,12117.5330,E,15.8,116.3,141123,,*2A
$GPGGA,221540,2500.2925,N,12117.5330,E,1,08,3.5,10.0,M,0.0,M,,*47
$GPRMC,221541,A,2500.2889,N,12117.5225,E,13.4,117.3,141123,,*22
$GPGGA,221541,2500.2889,N,12117.5225,E,1,08,3.5,10.0,M,0.0,M,,*44
$GPRMC,221542,A,2500.2880,N,12117.5275,E,15.7,119.2,141123,,*27
$GPGGA,221542,2500.2880,N,12117.5275,E,1,08,3.5,10.0,M,0.0,M,,*4B
$GPRMC,221543,A,2500.2853,N,12117.5364,E,17.8,117.6,141123,,*2E
$GPGGA,221543,2500.2853,N,12117.5364,E,1,08,3.5,10.0,M,0.0,M,,*45
$GPRMC,221544,A,2500.2825,N,12117.5332,E,14.3,123.6,141123,,*24
$GPGGA,221544,2500.2825,N,12117.5332,E,1,08,3.5,10.0,M,0.0,M,,*40
$GPRMC,221545,A,2500.2713,N,12117.5473,E,14.3,123.6,141123,,*2D
$GPGGA,221545,2500.2713,N,12117.5473,E,1,08,3.5,10.0,M,0.0,M,,*49
$GPRMC,221546,A,2500.2667,N,12117.5581,E,16.7,125.0,141123,,*26
$GPGGA,221546,2500.2667,N,12117.5581,E,1,08,3.5,10.0,M,0.0,M,,*44
$GPRMC,221547,A,2500.2684,N,12117.5617,E,13.4,123.1,141123,,*27
$GPGGA,221547,2500.2684,N,12117.5617,E,1,08,3.5,10.0,M,0.0,M,,*44
$GPRMC,221548,A,2500.2637,N,12117.5620,E,13.6,127.3,141123,,*20
$GPGGA,221548,2500.2637,N,12117.5620,E,1,08,3.5,10.0,M,0.0,M,,*47
$GPRMC,221549,A,2500.2594,N,12117.5649,E,15.9,129.7,141123,,*27
$GPGGA,221549,2500.2594,N,12117.5649,E,1,08,3.5,10.0,M,0.0,M,,*43
$GPRMC,221550,A,2500.2691,N,12117.5668,E,13.4,127.3,141123,,*2B
$GPGGA,221550,2500.2691,N,12117.5668,E,1,08,3.5,10.0,M,0.0,M,,*4E
$GPRMC,221551,A,2500.2697,N,12117.5694,E,8.4,139.0,141123,,*19
$GPGGA,221551,2500.2697,N,12117.5694,E,1,08,3.5,10.0,M,0.0,M,,*4A
$GPRMC,221552,A,2500.2679,N,12117.5777,E,10.7,137.1,141123,,*23
$GPGGA,221552,2500.2679,N,12117.5777,E,1,08,3.5,10.0,M,0.0,M,,*45
$GPRMC,221553,A,2500.2362,N,12117.5698,E,11.7,137.2,141123,,*2F
$GPGGA,221553,2500.2362,N,12117.5698,E,1,08,3.5,10.0,M,0.0,M,,*4B
$GPRMC,221554,A,2500.2435,N,12117.5683,E,14.0,138.6,141123,,*2E
$GPGGA,221554,2500.2435,N,12117.5683,E,1,08,3.5,10.0,M,0.0,M,,*43
$GPRMC,221555,A,2500.2434,N,12117.5729,E,10.5,141.5,141123,,*23
$GPGGA,221555,2500.2434,N,12117.5729,E,1,08,3.5,10.0,M,0.0,M,,*42
$GPRMC,221556,A,2500.2399,N,12117.5716,E,12.8,145.0,141123,,*22
$GPGGA,221556,2500.2399,N,12117.5716,E,1,08,3.5,10.0,M,0.0,M,,*4D
$GPRMC,221557,A,2500.2384,N,12117.5668,E,11.6,140.7,141123,,*28
$GPGGA,221557,2500.2384,N,12117.5668,E,1,08,3.5,10.0,M,0.0,M,,*48
$GPRMC,221558,A,2500.2291,N,12117.5722,E,12.7,148.3,141123,,*23
$GPGGA,221558,2500.2291,N,12117.5722,E,1,08,3.5,10.0,M,0.0,M,,*4D
$GPRMC,221559,A,2500.2268,N,12117.5949,E,14.4,149.5,141123,,*25
$GPGGA,221559,2500.2268,N,12117.5949,E,1,08,3.5,10.0,M,0.0,M,,*49
$GPRMC,221600,A,2500.2257,N,12117.6078,E,14.1,153.0,141123,,*25
$GPGGA,221600,2500.2257,N,12117.6078,E,1,08,3.5,10.0,M,0.0,M,,*42
$GPRMC,221601,A,2500.2270,N,12117.6009,E,13.0,152.3,141123,,*23
$GPGGA,221601,2500.2270,N,12117.6009,E,1,08,3.5,10.0,M,0.0,M,,*40
$GPRMC,221602,A,2500.2211,N,12117.6001,E,15.1,151.1,141123,,*29
$GPGGA,221602,2500.2211,N,12117.6001,E,1,08,3.5,10.0,M,0.0,M,,*4C
$GPRMC,221603,A,2500.2128,N,12117.6023,E,15.0,145.6,141123,,*22
$GPGGA,221603,2500.2128,N,12117.6023,E,1,08,3.5,10.0,M,0.0,M,,*44
$GPRMC,221604,A,2500.2081,N,12117.5963,E,17.3,154.4,141123,,*2A
$GPGGA,221604,2500.2081,N,12117.5963,E,1,08,3.5,10.0,M,0.0,M,,*4F
$GPRMC,221605,A,2500.2022,N,12117.5899,E,13.8,151.5,141123,,*2D
$GPGGA,221605,2500.2022,N,12117.5899,E,1,08,3.5,10.0,M,0.0,M,,*43
$GPRMC,221606,A,2500.2016,N,12117.5961,E,8.4,161.4,141123,,*1B
$GPGGA,221606,2500.2016,N,12117.5961,E,1,08,3.5,10.0,M,0.0,M,,*41
$GPRMC,221607,A,2500.2030,N,12117.6113,E,10.7,161.3,141123,,*2D
$GPGGA,221607,2500.2030,N,12117.6113,E,1,08,3.5,10.0,M,0.0,M,,*4A
$GPRMC,221608,A,2500.2029,N,12117.6196,E,13.0,161.4,141123,,*24
$GPGGA,221608,2500.2029,N,12117.6196,E,1,08,3.5,10.0,M,0.0,M,,*40
$GPRMC,221609,A,2500.2122,N,12117.6154,E,15.0,161.1,141123,,*22
$GPGGA,221609,2500.2122,N,12117.6154,E,1,08,3.5,10.0,M,0.0,M,,*45
$GPRMC,221610,A,2500.2157,N,12117.6175,E,14.2,162.1,141123,,*2B
$GPGGA,221610,2500.2157,N,12117.6175,E,1,08,3.5,10.0,M,0.0,M,,*4C
$GPRMC,221611,A,2500.2022,N,12117.6076,E,16.6,164.1,141123,,*2B
$GPGGA,221611,2500.2022,N,12117.6076,E,1,08,3.5,10.0,M,0.0,M,,*4C
$GPRMC,221612,A,2500.1918,N,12117.6184,E,18.6,165.3,141123,,*2A
$GPGGA,221612,2500.1918,N,12117.6184,E,1,08,3.5,10.0,M,0.0,M,,*40
$GPRMC,221613,A,2500.1769,N,12117.6176,E,15.8,166.9,141123,,*24
$GPGGA,221613,2500.1769,N,12117.6176,E,1,08,3.5,10.0,M,0.0,M,,*44
$GPRMC,221614,A,2500.1850,N,12117.6421,E,15.6,170.5,141123,,*24
$GPGGA,221614,2500.1850,N,12117.6421,E,1,08,3.5,10.0,M,0.0,M,,*41
$GPRMC,221615,A,2500.1821,N,12117.6200,E,17.9,170.1,141123,,*2F
$GPGGA,221615,2500.1821,N,12117.6200,E,1,08,3.5,10.0,M,0.0,M,,*43
$GPRMC,221616,A,2500.1732,N,12117.6298,E,14.4,166.1,141123,,*29
$GPGGA,221616,2500.1732,N,12117.6298,E,1,08,3.5,10.0,M,0.0,M,,*4C
$GPRMC,221617,A,2500.1604,N,12117.6205,E,16.5,165.2,141123,,*2B
$GPGGA,221617,2500.1604,N,12117.6205,E,1,08,3.5,10.0,M,0.0,M,,*4D
$GPRMC,221618,A,2500.1491,N,12117.6341,E,18.1,164.4,141123,,*26
$GPGGA,221618,2500.1491,N,12117.6341,E,1,08,3.5,10.0,M,0.0,M,,*4D
$GPRMC,221619,A,2500.1520,N,12117.6405,E,20.4,163.5,141123,,*23
$GPGGA,221619,2500.1520,N,12117.6405,E,1,08,3.5,10.0,M,0.0,M,,*40
$GPRMC,221620,A,2500.1568,N,12117.6416,E,19.2,158.5,141123,,*23
$GPGGA,221620,2500.1568,N,12117.6416,E,1,08,3.5,10.0,M,0.0,M,,*44
$GPRMC,221621,A,2500.1459,N,12117.6316,E,18.2,163.8,141123,,*22
$GPGGA,221621,2500.1459,N,12117.6316,E,1,08,3.5,10.0,M,0.0,M,,*41
$GPRMC,221622,A,2500.1328,N,12117.6194,E,19.9,166.8,141123,,*27
$GPGGA,221622,2500.1328,N,12117.6194,E,1,08,3.5,10.0,M,0.0,M,,*4B
$GPRMC,221623,A,2500.1363,N,12117.6196,E,16.4,162.4,141123,,*21
$GPGGA,221623,2500.1363,N,12117.6196,E,1,08,3.5,10.0,M,0.0,M,,*47
$GPRMC,221624,A,2500.1253,N,12117.6068,E,17.8,158.6,141123,,*22
$GPGGA,221624,2500.1253,N,12117.6068,E,1,08,3.5,10.0,M,0.0,M,,*42
$GPRMC,221625,A,2500.1216,N,12117.6043,E,14.6,155.2,141123,,*2F
$GPGGA,221625,2500.1216,N,12117.6043,E,1,08,3.5,10.0,M,0.0,M,,*4B
$GPRMC,221626,A,2500.1125,N,12117.6321,E,15.2,154.2,141123,,*2C
$GPGGA,221626,2500.1125,N,12117.6321,E,1,08,3.5,10.0,M,0.0,M,,*4C
$GPRMC,221627,A,2500.1057,N,12117.6492,E,17.5,160.7,141123,,*21
$GPGGA,221627,2500.1057,N,12117.6492,E,1,08,3.5,10.0,M,0.0,M,,*46
$GPRMC,221628,A,2500.1060,N,12117.6541,E,14.7,165.8,141123,,*2E
$GPGGA,221628,2500.1060,N,12117.6541,E,1,08,3.5,10.0,M,0.0,M,,*42
$GPRMC,221629,A,2500.0942,N,12117.6563,E,15.6,168.1,141123,,*23
$GPGGA,221629,2500.0942,N,12117.6563,E,1,08,3.5,10.0,M,0.0,M,,*4B
$GPRMC,221630,A,2500.1038,N,12117.6627,E,8.4,169.9,141123,,*1A
$GPGGA,221630,2500.1038,N,12117.6627,E,1,08,3.5,10.0,M,0.0,M,,*45
$GPRMC,221631,A,2500.1000,N,12117.6733,E,10.7,164.6,141123,,*2C
$GPGGA,221631,2500.1000,N,12117.6733,E,1,08,3.5,10.0,M,0.0,M,,*4B
$GPRMC,221632,A,2500.0891,N,12117.6602,E,13.0,162.0,141123,,*29
$GPGGA,221632,2500.0891,N,12117.6602,E,1,08,3.5,10.0,M,0.0,M,,*4A
$GPRMC,221633,A,2500.0873,N,12117.6525,E,10.4,158.0,141123,,*2C
$GPGGA,221633,2500.0873,N,12117.6525,E,1,08,3.5,10.0,M,0.0,M,,*41
$GPRMC,221634,A,2500.0978,N,12117.6498,E,12.7,161.8,141123,,*25
$GPGGA,221634,2500.0978,N,12117.6498,E,1,08,3.5,10.0,M,0.0,M,,*4B
$GPRMC,221635,A,2500.1088,N,12117.6473,E,15.1,161.1,141123,,*2E
$GPGGA,221635,2500.1088,N,12117.6473,E,1,08,3.5,10.0,M,0.0,M,,*48
$GPRMC,221636,A,2500.1045,N,12117.6453,E,15.1,161.0,141123,,*2F
$GPGGA,221636,2500.1045,N,12117.6453,E,1,08,3.5,10.0,M,0.0,M,,*48
$GPRMC,221637,A,2500.0921,N,12117.6504,E,17.4,162.0,141123,,*23
$GPGGA,221637,2500.0921,N,12117.6504,E,1,08,3.5,10.0,M,0.0,M,,*40
$GPRMC,221638,A,2500.0789,N,12117.6549,E,13.9,162.5,141123,,*25
$GPGGA,221638,2500.0789,N,12117.6549,E,1,08,3.5,10.0,M,0.0,M,,*4A
$GPRMC,221639,A,2500.0636,N,12117.6424,E,13.1,166.1,141123,,*23
$GPGGA,221639,2500.0636,N,12117.6424,E,1,08,3.5,10.0,M,0.0,M,,*44
$GPRMC,221640,A,2500.0670,N,12117.6515,E,12.2,167.0,141123,,*2E
$GPGGA,221640,2500.0670,N,12117.6515,E,1,08,3.5,10.0,M,0.0,M,,*4B
$GPRMC,221641,A,2500.0717,N,12117.6694,E,14.5,166.4,141123,,*21
$GPGGA,221641,2500.0717,N,12117.6694,E,1,08,3.5,10.0,M,0.0,M,,*40
$GPRMC,221642,A,2500.0833,N,12117.6694,E,16.8,166.2,141123,,*22
$GPGGA,221642,2500.0833,N,12117.6694,E,1,08,3.5,10.0,M,0.0,M,,*4A
$GPRMC,221643,A,2500.0809,N,12117.6423,E,13.6,163.9,141123,,*21
$GPGGA,221643,2500.0809,N,12117.6423,E,1,08,3.5,10.0,M,0.0,M,,*4C
$GPRMC,221644,A,2500.0774,N,12117.6416,E,11.1,160.6,141123,,*2C
$GPGGA,221644,2500.0774,N,12117.6416,E,1,08,3.5,10.0,M,0.0,M,,*48
$GPRMC,221645,A,2500.0679,N,12117.6365,E,13.4,164.0,141123,,*27
$GPGGA,221645,2500.0679,N,12117.6365,E,1,08,3.5,10.0,M,0.0,M,,*46
$GPRMC,221646,A,2500.0488,N,12117.6564,E,13.2,164.3,141123,,*2A
$GPGGA,221646,2500.0488,N,12117.6564,E,1,08,3.5,10.0,M,0.0,M,,*4E
$GPRMC,221647,A,2500.0548,N,12117.6447,E,15.5,163.0,141123,,*23
$GPGGA,221647,2500.0548,N,12117.6447,E,1,08,3.5,10.0,M,0.0,M,,*42
$GPRMC,221648,A,2500.0444,N,12117.6461,E,14.1,159.3,141123,,*2A
$GPGGA,221648,2500.0444,N,12117.6461,E,1,08,3.5,10.0,M,0.0,M,,*44
$GPRMC,221649,A,2500.0449,N,12117.6494,E,13.1,159.8,141123,,*20
$GPGGA,221649,2500.0449,N,12117.6494,E,1,08,3.5,10.0,M,0.0,M,,*42
$GPRMC,221650,A,2500.0341,N,12117.6526,E,12.1,152.3,141123,,*2E
$GPGGA,221650,2500.0341,N,12117.6526,E,1,08,3.5,10.0,M,0.0,M,,*4D
$GPRMC,221651,A,2500.0416,N,12117.6674,E,11.3,154.5,141123,,*2F
$GPGGA,221651,2500.0416,N,12117.6674,E,1,08,3.5,10.0,M,0.0,M,,*4D
$GPRMC,221652,A,2500.0394,N,12117.6716,E,10.5,162.8,141123,,*2B
$GPGGA,221652,2500.0394,N,12117.6716,E,1,08,3.5,10.0,M,0.0,M,,*46
$GPRMC,221653,A,2500.0333,N,12117.6732,E,9.7,163.7,141123,,*15
$GPGGA,221653,2500.0333,N,12117.6732,E,1,08,3.5,10.0,M,0.0,M,,*4C
$GPRMC,221654,A,2500.0272,N,12117.6787,E,9.1,162.3,141123,,*1B
$GPGGA,221654,2500.0272,N,12117.6787,E,1,08,3.5,10.0,M,0.0,M,,*41
$GPRMC,221655,A,2500.0333,N,12117.6769,E,8.4,160.9,141123,,*12
$GPGGA,221655,2500.0333,N,12117.6769,E,1,08,3.5,10.0,M,0.0,M,,*44
$GPRMC,221656,A,2500.0396,N,12117.6809,E,7.8,166.7,141123,,*1C
$GPGGA,221656,2500.0396,N,12117.6809,E,1,08,3.5,10.0,M,0.0,M,,*41
$GPRMC,221657,A,2500.0259,N,12117.6837,E,7.3,158.5,141123,,*16
$GPGGA,221657,2500.0259,N,12117.6837,E,1,08,3.5,10.0,M,0.0,M,,*4F
$GPRMC,221658,A,2500.0227,N,12117.6896,E,6.8,154.4,141123,,*1C
$GPGGA,221658,2500.0227,N,12117.6896,E,1,08,3.5,10.0,M,0.0,M,,*42
$GPRMC,221659,A,2500.0210,N,12117.6821,E,6.3,155.2,141123,,*19
$GPGGA,221659,2500.0210,N,12117.6821,E,1,08,3.5,10.0,M,0.0,M,,*4B
$GPRMC,221700,A,2500.0282,N,12117.6925,E,5.8,155.8,141123,,*18
$GPGGA,221700,2500.0282,N,12117.6925,E,1,08,3.5,10.0,M,0.0,M,,*48
$GPRMC,221701,A,2500.0205,N,12117.7000,E,5.4,157.4,141123,,*1B
$GPGGA,221701,2500.0205,N,12117.7000,E,1,08,3.5,10.0,M,0.0,M,,*49
$GPRMC,221702,A,2500.0246,N,12117.6944,E,5.0,157.5,141123,,*12
$GPGGA,221702,2500.0246,N,12117.6944,E,1,08,3.5,10.0,M,0.0,M,,*45
$GPRMC,221703,A,2500.0269,N,12117.6693,E,4.7,156.7,141123,,*1E
$GPGGA,221703,2500.0269,N,12117.6693,E,1,08,3.5,10.0,M,0.0,M,,*4C
$GPRMC,221704,A,2500.0159,N,12117.6587,E,0.0,158.1,141123,,*14
$GPGGA,221704,2500.0159,N,12117.6587,E,1,08,3.5,10.0,M,0.0,M,,*4D
$GPRMC,221705,A,2500.0163,N,12117.6646,E,0.0,161.9,141123,,*10
$GPGGA,221705,2500.0163,N,12117.6646,E,1,08,3.5,10.0,M,0.0,M,,*4B
$GPRMC,221706,A,2500.0245,N,12117.6716,E,0.0,161.4,141123,,*1D
$GPGGA,221706,2500.0245,N,12117.6716,E,1,08,3.5,10.0,M,0.0,M,,*4B
$GPRMC,221707,A,2500.0256,N,12117.6757,E,0.0,163.2,141123,,*1F
$GPGGA,221707,2500.0256,N,12117.6757,E,1,08,3.5,10.0,M,0.0,M,,*4D
$GPRMC,221708,A,2500.0128,N,12117.6797,E,0.0,165.6,141123,,*14
$GPGGA,221708,2500.0128,N,12117.6797,E,1,08,3.5,10.0,M,0.0,M,,*44
$GPRMC,221709,A,2500.0208,N,12117.6834,E,0.0,167.5,141123,,*13
$GPGGA,221709,2500.0208,N,12117.6834,E,1,08,3.5,10.0,M,0.0,M,,*42
$GPRMC,221710,A,2500.0318,N,12117.6871,E,0.0,167.6,141123,,*19
$GPGGA,221710,2500.0318,N,12117.6871,E,1,08,3.5,10.0,M,0.0,M,,*4B
$GPRMC,221711,A,2500.0253,N,12117.6769,E,0.0,162.6,141123,,*15
$GPGGA,221711,2500.0253,N,12117.6769,E,1,08,3.5,10.0,M,0.0,M,,*42
$GPRMC,221712,A,2500.0160,N,12117.6745,E,0.0,160.8,141123,,*17
$GPGGA,221712,2500.0160,N,12117.6745,E,1,08,3.5,10.0,M,0.0,M,,*4C
$GPRMC,221713,A,2500.0238,N,12117.6745,E,0.0,160.5,141123,,*15
$GPGGA,221713,2500.0238,N,12117.6745,E,1,08,3.5,10.0,M,0.0,M,,*43
$GPRMC,221714,A,2500.0189,N,12117.6830,E,0.0,155.0,141123,,*15
$GPGGA,221714,2500.0189,N,12117.6830,E,1,08,3.5,10.0,M,0.0,M,,*40
$GPRMC,221715,A,2500.0330,N,12117.6732,E,0.0,162.1,141123,,*1C
$GPGGA,221715,2500.0330,N,12117.6732,E,1,08,3.5,10.0,M,0.0,M,,*4C
$GPRMC,221716,A,2500.0219,N,12117.6757,E,8.3,159.9,141123,,*1D
$GPGGA,221716,2500.0219,N,12117.6757,E,1,08,3.5,10.0,M,0.0,M,,*46
$GPRMC,221717,A,2500.0159,N,12117.6692,E,10.6,160.0,141123,,*2C
$GPGGA,221717,2500.0159,N,12117.6692,E,1,08,3.5,10.0,M,0.0,M,,*48
$GPRMC,221718,A,2500.0053,N,12117.6845,E,12.9,166.0,141123,,*27
$GPGGA,221718,2500.0053,N,12117.6845,E,1,08,3.5,10.0,M,0.0,M,,*48
$GPRMC,221719,A,2459.9936,N,12117.6872,E,14.5,163.2,141123,,*21
$GPGGA,221719,2459.9936,N,12117.6872,E,1,08,3.5,10.0,M,0.0,M,,*43
$GPRMC,221720,A,2459.9895,N,12117.6717,E,15.0,166.7,141123,,*2B
$GPGGA,221720,2459.9895,N,12117.6717,E,1,08,3.5,10.0,M,0.0,M,,*4D
$GPRMC,221721,A,2459.9858,N,12117.6685,E,17.1,163.2,141123,,*22
$GPGGA,221721,2459.9858,N,12117.6685,E,1,08,3.5,10.0,M,0.0,M,,*47
$GPRMC,221722,A,2459.9978,N,12117.6740,E,17.9,160.6,141123,,*25
$GPGGA,221722,2459.9978,N,12117.6740,E,1,08,3.5,10.0,M,0.0,M,,*4F
$GPRMC,221723,A,2459.9913,N,12117.6684,E,14.4,165.8,141123,,*25
$GPGGA,221723,2459.9913,N,12117.6684,E,1,08,3.5,10.0,M,0.0,M,,*4A
$GPRMC,221724,A,2459.9735,N,12117.6732,E,16.1,169.1,141123,,*26
$GPGGA,221724,2459.9735,N,12117.6732,E,1,08,3.5,10.0,M,0.0,M,,*4B
$GPRMC,221725,A,2459.9651,N,12117.6852,E,12.6,161.7,141123,,*20
$GPGGA,221725,2459.9651,N,12117.6852,E,1,08,3.5,10.0,M,0.0,M,,*40
$GPRMC,221726,A,2459.9653,N,12117.6847,E,10.4,161.1,141123,,*23
$GPGGA,221726,2459.9653,N,12117.6847,E,1,08,3.5,10.0,M,0.0,M,,*45
$GPRMC,221727,A,2459.9552,N,12117.6703,E,12.7,159.9,141123,,*2D
$GPGGA,221727,2459.9552,N,12117.6703,E,1,08,3.5,10.0,M,0.0,M,,*49
$GPRMC,221728,A,2459.9598,N,12117.6901,E,11.6,160.2,141123,,*2B
$GPGGA,221728,2459.9598,N,12117.6901,E,1,08,3.5,10.0,M,0.0,M,,*4C
$GPRMC,221729,A,2459.9562,N,12117.6821,E,13.9,163.3,141123,,*23
$GPGGA,221729,2459.9562,N,12117.6821,E,1,08,3.5,10.0,M,0.0,M,,*4B
$GPRMC,221730,A,2459.9554,N,12117.6996,E,14.0,162.4,141123,,*2B
$GPGGA,221730,2459.9554,N,12117.6996,E,1,08,3.5,10.0,M,0.0,M,,*4B
$GPRMC,221731,A,2459.9544,N,12117.6998,E,16.1,160.2,141123,,*22
$GPGGA,221731,2459.9544,N,12117.6998,E,1,08,3.5,10.0,M,0.0,M,,*45
$GPRMC,221732,A,2459.9575,N,12117.7132,E,16.1,164.7,141123,,*2B
$GPGGA,221732,2459.9575,N,12117.7132,E,1,08,3.5,10.0,M,0.0,M,,*4D
$GPRMC,221733,A,2459.9479,N,12117.7185,E,18.5,161.3,141123,,*20
$GPGGA,221733,2459.9479,N,12117.7185,E,1,08,3.5,10.0,M,0.0,M,,*4D
$GPRMC,221734,A,2459.9419,N,12117.7147,E,8.4,163.8,141123,,*16
$GPGGA,221734,2459.9419,N,12117.7147,E,1,08,3.5,10.0,M,0.0,M,,*42
$GPRMC,221735,A,2459.9406,N,12117.7096,E,10.7,163.7,141123,,*21
$GPGGA,221735,2459.9406,N,12117.7096,E,1,08,3.5,10.0,M,0.0,M,,*40
$GPRMC,221736,A,2459.9254,N,12117.7100,E,13.0,170.9,141123,,*25
$GPGGA,221736,2459.9254,N,12117.7100,E,1,08,3.5,10.0,M,0.0,M,,*4C
$GPRMC,221737,A,2459.9204,N,12117.7021,E,15.0,174.6,141123,,*2E
$GPGGA,221737,2459.9204,N,12117.7021,E,1,08,3.5,10.0,M,0.0,M,,*4A
$GPRMC,221738,A,2459.9139,N,12117.6987,E,17.3,179.6,141123,,*24
$GPGGA,221738,2459.9139,N,12117.6987,E,1,08,3.5,10.0,M,0.0,M,,*4C
$GPRMC,221739,A,2459.9132,N,12117.7140,E,18.6,169.9,141123,,*28
$GPGGA,221739,2459.9132,N,12117.7140,E,1,08,3.5,10.0,M,0.0,M,,*44
$GPRMC,221740,A,2459.9230,N,12117.7092,E,17.2,165.5,141123,,*22
$GPGGA,221740,2459.9230,N,12117.7092,E,1,08,3.5,10.0,M,0.0,M,,*45
$GPRMC,221741,A,2459.9298,N,12117.7177,E,15.0,167.6,141123,,*2A
$GPGGA,221741,2459.9298,N,12117.7177,E,1,08,3.5,10.0,M,0.0,M,,*4C
$GPRMC,221742,A,2459.9285,N,12117.7190,E,15.4,165.6,141123,,*2A
$GPGGA,221742,2459.9285,N,12117.7190,E,1,08,3.5,10.0,M,0.0,M,,*4A
$GPRMC,221743,A,2459.9166,N,12117.7054,E,13.7,170.1,141123,,*2A
$GPGGA,221743,2459.9166,N,12117.7054,E,1,08,3.5,10.0,M,0.0,M,,*4C
$GPRMC,221744,A,2459.9158,N,12117.6863,E,11.9,175.7,141123,,*22
$GPGGA,221744,2459.9158,N,12117.6863,E,1,08,3.5,10.0,M,0.0,M,,*4B
$GPRMC,221745,A,2459.9068,N,12117.6897,E,10.3,173.6,141123,,*26
$GPGGA,221745,2459.9068,N,12117.6897,E,1,08,3.5,10.0,M,0.0,M,,*43
$GPRMC,221746,A,2459.9022,N,12117.6881,E,9.0,173.2,141123,,*13
$GPGGA,221746,2459.9022,N,12117.6881,E,1,08,3.5,10.0,M,0.0,M,,*49
$GPRMC,221747,A,2459.8957,N,12117.6946,E,7.8,169.1,141123,,*1C
$GPGGA,221747,2459.8957,N,12117.6946,E,1,08,3.5,10.0,M,0.0,M,,*48
$GPRMC,221748,A,2459.8837,N,12117.6913,E,6.8,169.2,141123,,*16
$GPGGA,221748,2459.8837,N,12117.6913,E,1,08,3.5,10.0,M,0.0,M,,*40
$GPRMC,221749,A,2459.8771,N,12117.6858,E,5.9,165.7,141123,,*1F
$GPGGA,221749,2459.8771,N,12117.6858,E,1,08,3.5,10.0,M,0.0,M,,*42
$GPRMC,221750,A,2459.8877,N,12117.6926,E,5.1,171.8,141123,,*14
$GPGGA,221750,2459.8877,N,12117.6926,E,1,08,3.5,10.0,M,0.0,M,,*4B
$GPRMC,221751,A,2459.8867,N,12117.6865,E,0.0,180.0,141123,,*10
$GPGGA,221751,2459.8867,N,12117.6865,E,1,08,3.5,10.0,M,0.0,M,,*4D
$GPRMC,221752,A,2459.9047,N,12117.6878,E,0.0,177.9,141123,,*15
$GPGGA,221752,2459.9047,N,12117.6878,E,1,08,3.5,10.0,M,0.0,M,,*49
$GPRMC,221753,A,2459.8954,N,12117.6917,E,0.0,180.0,141123,,*17
$GPGGA,221753,2459.8954,N,12117.6917,E,1,08,3.5,10.0,M,0.0,M,,*4A
$GPRMC,221754,A,2459.8889,N,12117.6833,E,0.0,178.0,141123,,*11
$GPGGA,221754,2459.8889,N,12117.6833,E,1,08,3.5,10.0,M,0.0,M,,*4B
$GPRMC,221755,A,2459.9046,N,12117.6928,E,0.0,177.7,141123,,*19
$GPGGA,221755,2459.9046,N,12117.6928,E,1,08,3.5,10.0,M,0.0,M,,*4B
$GPRMC,221756,A,2459.8954,N,12117.7022,E,0.0,178.3,141123,,*18
$GPGGA,221756,2459.8954,N,12117.7022,E,1,08,3.5,10.0,M,0.0,M,,*41
$GPRMC,221757,A,2459.8963,N,12117.7035,E,0.0,181.3,141123,,*1D
$GPGGA,221757,2459.8963,N,12117.7035,E,1,08,3.5,10.0,M,0.0,M,,*42
$GPRMC,221758,A,2459.9020,N,12117.6989,E,8.4,179.7,141123,,*1D
$GPGGA,221758,2459.9020,N,12117.6989,E,1,08,3.5,10.0,M,0.0,M,,*4D
$GPRMC,221759,A,2459.9050,N,12117.7121,E,10.7,185.6,141123,,*28
$GPGGA,221759,2459.9050,N,12117.7121,E,1,08,3.5,10.0,M,0.0,M,,*40
$GPRMC,221800,A,2459.8984,N,12117.7169,E,13.0,184.5,141123,,*20
$GPGGA,221800,2459.8984,N,12117.7169,E,1,08,3.5,10.0,M,0.0,M,,*4E
$GPRMC,221801,A,2459.8886,N,12117.7064,E,15.4,190.0,141123,,*2C
$GPGGA,221801,2459.8886,N,12117.7064,E,1,08,3.5,10.0,M,0.0,M,,*40
$GPRMC,221802,A,2459.8832,N,12117.7030,E,11.9,192.4,141123,,*2E
$GPGGA,221802,2459.8832,N,12117.7030,E,1,08,3.5,10.0,M,0.0,M,,*4D
$GPRMC,221803,A,2459.8864,N,12117.7033,E,13.5,184.8,141123,,*2A
$GPGGA,221803,2459.8864,N,12117.7033,E,1,08,3.5,10.0,M,0.0,M,,*4C
$GPRMC,221804,A,2459.8747,N,12117.6995,E,13.7,187.3,141123,,*2D
$GPGGA,221804,2459.8747,N,12117.6995,E,1,08,3.5,10.0,M,0.0,M,,*41
$GPRMC,221805,A,2459.8669,N,12117.6976,E,12.7,182.4,141123,,*2F
$GPGGA,221805,2459.8669,N,12117.6976,E,1,08,3.5,10.0,M,0.0,M,,*40
$GPRMC,221806,A,2459.8605,N,12117.6962,E,10.0,180.7,141123,,*27
$GPGGA,221806,2459.8605,N,12117.6962,E,1,08,3.5,10.0,M,0.0,M,,*4C
$GPRMC,221807,A,2459.8673,N,12117.7040,E,12.3,180.1,141123,,*28
$GPGGA,221807,2459.8673,N,12117.7040,E,1,08,3.5,10.0,M,0.0,M,,*44
$GPRMC,221808,A,2459.8639,N,12117.7111,E,13.1,177.3,141123,,*25
$GPGGA,221808,2459.8639,N,12117.7111,E,1,08,3.5,10.0,M,0.0,M,,*40
$GPRMC,221809,A,2459.8498,N,12117.7044,E,15.4,179.7,141123,,*25
$GPGGA,221809,2459.8498,N,12117.7044,E,1,08,3.5,10.0,M,0.0,M,,*49
$GPRMC,221810,A,2459.8405,N,12117.7030,E,17.8,169.8,141123,,*2A
$GPGGA,221810,2459.8405,N,12117.7030,E,1,08,3.5,10.0,M,0.0,M,,*46
$GPRMC,221811,A,2459.8395,N,12117.7052,E,16.6,173.2,141123,,*2F
$GPGGA,221811,2459.8395,N,12117.7052,E,1,08,3.5,10.0,M,0.0,M,,*4D
$GPRMC,221812,A,2459.8413,N,12117.6978,E,17.4,176.5,141123,,*24
$GPGGA,221812,2459.8413,N,12117.6978,E,1,08,3.5,10.0,M,0.0,M,,*47
$GPRMC,221813,A,2459.8383,N,12117.7039,E,15.7,174.0,141123,,*20
$GPGGA,221813,2459.8383,N,12117.7039,E,1,08,3.5,10.0,M,0.0,M,,*45
$GPRMC,221814,A,2459.8198,N,12117.6986,E,18.0,182.0,141123,,*20
$GPGGA,221814,2459.8198,N,12117.6986,E,1,08,3.5,10.0,M,0.0,M,,*46
$GPRMC,221815,A,2459.8117,N,12117.6903,E,14.7,178.9,141123,,*2C
$GPGGA,221815,2459.8117,N,12117.6903,E,1,08,3.5,10.0,M,0.0,M,,*4D
$GPRMC,221816,A,2459.8021,N,12117.7014,E,11.3,182.5,141123,,*2D
$GPGGA,221816,2459.8021,N,12117.7014,E,1,08,3.5,10.0,M,0.0,M,,*44
$GPRMC,221817,A,2459.8022,N,12117.6936,E,13.6,182.8,141123,,*2D
$GPGGA,221817,2459.8022,N,12117.6936,E,1,08,3.5,10.0,M,0.0,M,,*4E
$GPRMC,221818,A,2459.7986,N,12117.7047,E,13.9,183.1,141123,,*23
$GPGGA,221818,2459.7986,N,12117.7047,E,1,08,3.5,10.0,M,0.0,M,,*47
$GPRMC,221819,A,2459.7955,N,12117.7026,E,12.2,180.2,141123,,*21
$GPGGA,221819,2459.7955,N,12117.7026,E,1,08,3.5,10.0,M,0.0,M,,*4F
$GPRMC,221820,A,2459.8016,N,12117.7039,E,11.2,176.6,141123,,*2A
$GPGGA,221820,2459.8016,N,12117.7039,E,1,08,3.5,10.0,M,0.0,M,,*4A
$GPRMC,221821,A,2459.7981,N,12117.7210,E,13.6,176.9,141123,,*23
$GPGGA,221821,2459.7981,N,12117.7210,E,1,08,3.5,10.0,M,0.0,M,,*4A
$GPRMC,221822,A,2459.7917,N,12117.7201,E,13.7,177.6,141123,,*20
$GPGGA,221822,2459.7917,N,12117.7201,E,1,08,3.5,10.0,M,0.0,M,,*46
$GPRMC,221823,A,2459.7858,N,12117.7044,E,16.0,175.0,141123,,*2E
$GPGGA,221823,2459.7858,N,12117.7044,E,1,08,3.5,10.0,M,0.0,M,,*4E
$GPRMC,221824,A,2459.7919,N,12117.7150,E,13.7,172.6,141123,,*2A
$GPGGA,221824,2459.7919,N,12117.7150,E,1,08,3.5,10.0,M,0.0,M,,*49
$GPRMC,221825,A,2459.7886,N,12117.7160,E,15.1,177.7,141123,,*2B
$GPGGA,221825,2459.7886,N,12117.7160,E,1,08,3.5,10.0,M,0.0,M,,*4C
$GPRMC,221826,A,2459.7805,N,12117.7099,E,13.4,179.6,141123,,*28
$GPGGA,221826,2459.7805,N,12117.7099,E,1,08,3.5,10.0,M,0.0,M,,*43
$GPRMC,221827,A,2459.7813,N,12117.7116,E,15.7,187.3,141123,,*29
$GPGGA,221827,2459.7813,N,12117.7116,E,1,08,3.5,10.0,M,0.0,M,,*43
$GPRMC,221828,A,2459.7634,N,12117.7002,E,16.7,182.9,141123,,*25
$GPGGA,221828,2459.7634,N,12117.7002,E,1,08,3.5,10.0,M,0.0,M,,*43
$GPRMC,221829,A,2459.7651,N,12117.6978,E,13.2,181.2,141123,,*2A
$GPGGA,221829,2459.7651,N,12117.6978,E,1,08,3.5,10.0,M,0.0,M,,*44
$GPRMC,221830,A,2459.7619,N,12117.7080,E,15.5,181.3,141123,,*21
$GPGGA,221830,2459.7619,N,12117.7080,E,1,08,3.5,10.0,M,0.0,M,,*4F
$GPRMC,221831,A,2459.7545,N,12117.7139,E,17.3,180.8,141123,,*27
$GPGGA,221831,2459.7545,N,12117.7139,E,1,08,3.5,10.0,M,0.0,M,,*47
$GPRMC,221832,A,2459.7538,N,12117.7138,E,16.6,175.4,141123,,*2D
$GPGGA,221832,2459.7538,N,12117.7138,E,1,08,3.5,10.0,M,0.0,M,,*4F
$GPRMC,221833,A,2459.7487,N,12117.7136,E,16.1,182.4,141123,,*28
$GPGGA,221833,2459.7487,N,12117.7136,E,1,08,3.5,10.0,M,0.0,M,,*45
$GPRMC,221834,A,2459.7383,N,12117.7083,E,16.7,187.0,141123,,*24
$GPGGA,221834,2459.7383,N,12117.7083,E,1,08,3.5,10.0,M,0.0,M,,*4E
$GPRMC,221835,A,2459.7453,N,12117.7163,E,13.2,190.3,141123,,*25
$GPGGA,221835,2459.7453,N,12117.7163,E,1,08,3.5,10.0,M,0.0,M,,*4A
$GPRMC,221836,A,2459.7446,N,12117.7195,E,15.5,190.4,141123,,*2D
$GPGGA,221836,2459.7446,N,12117.7195,E,1,08,3.5,10.0,M,0.0,M,,*44
$GPRMC,221837,A,2459.7472,N,12117.7143,E,14.0,186.6,141123,,*21
$GPGGA,221837,2459.7472,N,12117.7143,E,1,08,3.5,10.0,M,0.0,M,,*49
$GPRMC,221838,A,2459.7486,N,12117.7000,E,16.4,189.5,141123,,*29
$GPGGA,221838,2459.7486,N,12117.7000,E,1,08,3.5,10.0,M,0.0,M,,*4B
$GPRMC,221839,A,2459.7530,N,12117.7043,E,15.0,188.9,141123,,*29
$GPGGA,221839,2459.7530,N,12117.7043,E,1,08,3.5,10.0,M,0.0,M,,*41
$GPRMC,221840,A,2459.7447,N,12117.7053,E,11.5,181.7,141123,,*21
$GPGGA,221840,2459.7447,N,12117.7053,E,1,08,3.5,10.0,M,0.0,M,,*4F
$GPRMC,221841,A,2459.7351,N,12117.7153,E,13.8,178.2,141123,,*2D
$GPGGA,221841,2459.7351,N,12117.7153,E,1,08,3.5,10.0,M,0.0,M,,*4F
$GPRMC,221842,A,2459.7417,N,12117.7284,E,15.3,185.0,141123,,*2F
$GPGGA,221842,2459.7417,N,12117.7284,E,1,08,3.5,10.0,M,0.0,M,,*40
$GPRMC,221843,A,2459.7115,N,12117.7199,E,16.8,183.0,141123,,*28
$GPGGA,221843,2459.7115,N,12117.7199,E,1,08,3.5,10.0,M,0.0,M,,*49
$GPRMC,221844,A,2459.7067,N,12117.7219,E,19.1,182.5,141123,,*22
$GPGGA,221844,2459.7067,N,12117.7219,E,1,08,3.5,10.0,M,0.0,M,,*41
$GPRMC,221845,A,2459.7020,N,12117.7312,E,15.6,181.8,141123,,*2F
$GPGGA,221845,2459.7020,N,12117.7312,E,1,08,3.5,10.0,M,0.0,M,,*49
$GPRMC,221846,A,2459.6938,N,12117.7265,E,17.9,175.5,141123,,*27
$GPGGA,221846,2459.6938,N,12117.7265,E,1,08,3.5,10.0,M,0.0,M,,*4A
$GPRMC,221847,A,2459.6807,N,12117.7230,E,15.6,173.2,141123,,*27
$GPGGA,221847,2459.6807,N,12117.7230,E,1,08,3.5,10.0,M,0.0,M,,*46
$GPRMC,221848,A,2459.6764,N,12117.7093,E,15.3,177.7,141123,,*2D
$GPGGA,221848,2459.6764,N,12117.7093,E,1,08,3.5,10.0,M,0.0,M,,*48
$GPRMC,221849,A,2459.6786,N,12117.7128,E,14.4,174.9,141123,,*2A
$GPGGA,221849,2459.6786,N,12117.7128,E,1,08,3.5,10.0,M,0.0,M,,*44
$GPRMC,221850,A,2459.6802,N,12117.6965,E,15.5,171.2,141123,,*2F
$GPGGA,221850,2459.6802,N,12117.6965,E,1,08,3.5,10.0,M,0.0,M,,*4F
$GPRMC,221851,A,2459.6730,N,12117.7127,E,12.0,175.1,141123,,*2A
$GPGGA,221851,2459.6730,N,12117.7127,E,1,08,3.5,10.0,M,0.0,M,,*4F
$GPRMC,221852,A,2459.6724,N,12117.7095,E,12.9,171.7,141123,,*2F
$GPGGA,221852,2459.6724,N,12117.7095,E,1,08,3.5,10.0,M,0.0,M,,*41
$GPRMC,221853,A,2459.6687,N,12117.6984,E,15.2,175.8,141123,,*29
$GPGGA,221853,2459.6687,N,12117.6984,E,1,08,3.5,10.0,M,0.0,M,,*40
$GPRMC,221854,A,2459.6571,N,12117.6887,E,12.5,177.5,141123,,*29
$GPGGA,221854,2459.6571,N,12117.6887,E,1,08,3.5,10.0,M,0.0,M,,*4F
$GPRMC,221855,A,2459.6588,N,12117.7077,E,14.8,172.6,141123,,*25
$GPGGA,221855,2459.6588,N,12117.7077,E,1,08,3.5,10.0,M,0.0,M,,*4E
$GPRMC,221856,A,2459.6605,N,12117.6962,E,13.0,168.2,141123,,*2C
$GPGGA,221856,2459.6605,N,12117.6962,E,1,08,3.5,10.0,M,0.0,M,,*47
$GPRMC,221857,A,2459.6568,N,12117.7041,E,8.4,78.4,141123,,*24
$GPGGA,221857,2459.6568,N,12117.7041,E,1,08,3.5,10.0,M,0.0,M,,*47
$GPRMC,221858,A,2459.6608,N,12117.7005,E,10.7,83.5,141123,,*11
$GPGGA,221858,2459.6608,N,12117.7005,E,1,08,3.5,10.0,M,0.0,M,,*4D
$GPRMC,221859,A,2459.6709,N,12117.7127,E,13.0,91.5,141123,,*16
$GPGGA,221859,2459.6709,N,12117.7127,E,1,08,3.5,10.0,M,0.0,M,,*4D
$GPRMC,221900,A,2459.6707,N,12117.7306,E,12.2,90.7,141123,,*14
$GPGGA,221900,2459.6707,N,12117.7306,E,1,08,3.5,10.0,M,0.0,M,,*4F
$GPRMC,221901,A,2459.6677,N,12117.7340,E,13.0,89.1,141123,,*1C
$GPGGA,221901,2459.6677,N,12117.7340,E,1,08,3.5,10.0,M,0.0,M,,*4A
$GPRMC,221902,A,2459.6555,N,12117.7334,E,12.2,83.0,141123,,*17
$GPGGA,221902,2459.6555,N,12117.7334,E,1,08,3.5,10.0,M,0.0,M,,*49
$GPRMC,221903,A,2459.6578,N,12117.7273,E,13.6,75.5,141123,,*12
$GPGGA,221903,2459.6578,N,12117.7273,E,1,08,3.5,10.0,M,0.0,M,,*45
$GPRMC,221904,A,2459.6683,N,12117.7305,E,14.5,77.0,141123,,*11
$GPGGA,221904,2459.6683,N,12117.7305,E,1,08,3.5,10.0,M,0.0,M,,*45
$GPRMC,221905,A,2459.6729,N,12117.7495,E,16.9,74.5,141123,,*17
$GPGGA,221905,2459.6729,N,12117.7495,E,1,08,3.5,10.0,M,0.0,M,,*4B
$GPRMC,221906,A,2459.6774,N,12117.7357,E,13.4,75.1,141123,,*18
$GPGGA,221906,2459.6774,N,12117.7357,E,1,08,3.5,10.0,M,0.0,M,,*49
$GPRMC,221907,A,2459.6766,N,12117.7384,E,15.4,78.0,141123,,*1E
$GPGGA,221907,2459.6766,N,12117.7384,E,1,08,3.5,10.0,M,0.0,M,,*45
$GPRMC,221908,A,2459.6728,N,12117.7562,E,14.9,78.3,141123,,*1A
$GPGGA,221908,2459.6728,N,12117.7562,E,1,08,3.5,10.0,M,0.0,M,,*4E
$GPRMC,221909,A,2459.6613,N,12117.7559,E,17.3,76.5,141123,,*1B
$GPGGA,221909,2459.6613,N,12117.7559,E,1,08,3.5,10.0,M,0.0,M,,*4E
$GPRMC,221910,A,2459.6542,N,12117.7547,E,13.8,75.5,141123,,*17
$GPGGA,221910,2459.6542,N,12117.7547,E,1,08,3.5,10.0,M,0.0,M,,*4E
$GPRMC,221911,A,2459.6670,N,12117.7487,E,16.1,76.3,141123,,*10
$GPGGA,221911,2459.6670,N,12117.7487,E,1,08,3.5,10.0,M,0.0,M,,*40
$GPRMC,221912,A,2459.6670,N,12117.7527,E,18.1,85.0,141123,,*19
$GPGGA,221912,2459.6670,N,12117.7527,E,1,08,3.5,10.0,M,0.0,M,,*48
$GPRMC,221913,A,2459.6566,N,12117.7614,E,14.6,76.8,141123,,*10
$GPGGA,221913,2459.6566,N,12117.7614,E,1,08,3.5,10.0,M,0.0,M,,*4E
$GPRMC,221914,A,2459.6591,N,12117.7809,E,15.7,79.3,141123,,*19
$GPGGA,221914,2459.6591,N,12117.7809,E,1,08,3.5,10.0,M,0.0,M,,*43
$GPRMC,221915,A,2459.6635,N,12117.7920,E,12.2,79.7,141123,,*19
$GPGGA,221915,2459.6635,N,12117.7920,E,1,08,3.5,10.0,M,0.0,M,,*45
$GPRMC,221916,A,2459.6609,N,12117.7988,E,14.4,79.0,141123,,*10
$GPGGA,221916,2459.6609,N,12117.7988,E,1,08,3.5,10.0,M,0.0,M,,*4B
$GPRMC,221917,A,2459.6759,N,12117.8114,E,12.9,85.7,141123,,*18
$GPGGA,221917,2459.6759,N,12117.8114,E,1,08,3.5,10.0,M,0.0,M,,*4C
$GPRMC,221918,A,2459.6636,N,12117.8220,E,11.2,84.1,141123,,*14
$GPGGA,221918,2459.6636,N,12117.8220,E,1,08,3.5,10.0,M,0.0,M,,*4F
$GPRMC,221919,A,2459.6707,N,12117.8188,E,13.5,88.3,141123,,*1C
$GPGGA,221919,2459.6707,N,12117.8188,E,1,08,3.5,10.0,M,0.0,M,,*4C
$GPRMC,221920,A,2459.6591,N,12117.7995,E,12.7,89.1,141123,,*10
$GPGGA,221920,2459.6591,N,12117.7995,E,1,08,3.5,10.0,M,0.0,M,,*40
$GPRMC,221921,A,2459.6527,N,12117.8057,E,13.1,82.6,141123,,*1F
$GPGGA,221921,2459.6527,N,12117.8057,E,1,08,3.5,10.0,M,0.0,M,,*44
$GPRMC,221922,A,2459.6586,N,12117.8067,E,12.4,88.4,141123,,*18
$GPGGA,221922,2459.6586,N,12117.8067,E,1,08,3.5,10.0,M,0.0,M,,*4F
$GPRMC,221923,A,2459.6598,N,12117.8177,E,14.7,89.3,141123,,*15
$GPGGA,221923,2459.6598,N,12117.8177,E,1,08,3.5,10.0,M,0.0,M,,*41
$GPRMC,221924,A,2459.6565,N,12117.8265,E,15.2,93.9,141123,,*15
$GPGGA,221924,2459.6565,N,12117.8265,E,1,08,3.5,10.0,M,0.0,M,,*44
$GPRMC,221925,A,2459.6744,N,12117.8280,E,17.2,92.8,141123,,*1C
$GPGGA,221925,2459.6744,N,12117.8280,E,1,08,3.5,10.0,M,0.0,M,,*4F
$GPRMC,221926,A,2459.6820,N,12117.8307,E,13.7,92.9,141123,,*1C
$GPGGA,221926,2459.6820,N,12117.8307,E,1,08,3.5,10.0,M,0.0,M,,*4F
$GPRMC,221927,A,2459.6838,N,12117.8250,E,12.0,91.6,141123,,*1D
$GPGGA,221927,2459.6838,N,12117.8250,E,1,08,3.5,10.0,M,0.0,M,,*44
$GPRMC,221928,A,2459.6748,N,12117.8313,E,14.4,95.5,141123,,*19
$GPGGA,221928,2459.6748,N,12117.8313,E,1,08,3.5,10.0,M,0.0,M,,*45
$GPRMC,221929,A,2459.6736,N,12117.8396,E,16.7,81.6,141123,,*1B
$GPGGA,221929,2459.6736,N,12117.8396,E,1,08,3.5,10.0,M,0.0,M,,*40
$GPRMC,221930,A,2459.6801,N,12117.8574,E,13.2,74.9,141123,,*17
$GPGGA,221930,2459.6801,N,12117.8574,E,1,08,3.5,10.0,M,0.0,M,,*49
$GPRMC,221931,A,2459.6806,N,12117.8539,E,15.5,80.0,141123,,*1B
$GPGGA,221931,2459.6806,N,12117.8539,E,1,08,3.5,10.0,M,0.0,M,,*46
$GPRMC,221932,A,2459.6835,N,12117.8620,E,13.0,78.6,141123,,*11
$GPGGA,221932,2459.6835,N,12117.8620,E,1,08,3.5,10.0,M,0.0,M,,*4E
$GPRMC,221933,A,2459.6918,N,12117.8620,E,11.5,79.7,141123,,*19
$GPGGA,221933,2459.6918,N,12117.8620,E,1,08,3.5,10.0,M,0.0,M,,*41
$GPRMC,221934,A,2459.6832,N,12117.8705,E,12.1,78.5,141123,,*15
$GPGGA,221934,2459.6832,N,12117.8705,E,1,08,3.5,10.0,M,0.0,M,,*49
$GPRMC,221935,A,2459.6904,N,12117.8754,E,14.5,82.5,141123,,*13
$GPGGA,221935,2459.6904,N,12117.8754,E,1,08,3.5,10.0,M,0.0,M,,*48
$GPRMC,221936,A,2459.6692,N,12117.8886,E,16.8,87.3,141123,,*1C
$GPGGA,221936,2459.6692,N,12117.8886,E,1,08,3.5,10.0,M,0.0,M,,*4B
$GPRMC,221937,A,2459.6808,N,12117.8851,E,13.3,81.1,141123,,*10
$GPGGA,221937,2459.6808,N,12117.8851,E,1,08,3.5,10.0,M,0.0,M,,*4D
$GPRMC,221938,A,2459.6878,N,12117.8864,E,10.8,86.0,141123,,*10
$GPGGA,221938,2459.6878,N,12117.8864,E,1,08,3.5,10.0,M,0.0,M,,*43
$GPRMC,221939,A,2459.6754,N,12117.8774,E,13.1,81.2,141123,,*11
$GPGGA,221939,2459.6754,N,12117.8774,E,1,08,3.5,10.0,M,0.0,M,,*4D
$GPRMC,221940,A,2459.6722,N,12117.8897,E,15.5,83.5,141123,,*1B
$GPGGA,221940,2459.6722,N,12117.8897,E,1,08,3.5,10.0,M,0.0,M,,*40
$GPRMC,221941,A,2459.6871,N,12117.8963,E,14.2,82.1,141123,,*1A
$GPGGA,221941,2459.6871,N,12117.8963,E,1,08,3.5,10.0,M,0.0,M,,*42
$GPRMC,221942,A,2459.6803,N,12117.8973,E,15.9,84.8,141123,,*18
$GPGGA,221942,2459.6803,N,12117.8973,E,1,08,3.5,10.0,M,0.0,M,,*45
$GPRMC,221943,A,2459.6808,N,12117.8953,E,13.7,88.7,141123,,*1B
$GPGGA,221943,2459.6808,N,12117.8953,E,1,08,3.5,10.0,M,0.0,M,,*4D
$GPRMC,221944,A,2459.6912,N,12117.9002,E,13.9,87.7,141123,,*1B
$GPGGA,221944,2459.6912,N,12117.9002,E,1,08,3.5,10.0,M,0.0,M,,*4C
$GPRMC,221945,A,2459.6939,N,12117.9134,E,16.0,88.3,141123,,*10
$GPGGA,221945,2459.6939,N,12117.9134,E,1,08,3.5,10.0,M,0.0,M,,*40
$GPRMC,221946,A,2459.6892,N,12117.9255,E,15.6,83.5,141123,,*1F
$GPGGA,221946,2459.6892,N,12117.9255,E,1,08,3.5,10.0,M,0.0,M,,*47
$GPRMC,221947,A,2459.6834,N,12117.9368,E,13.0,80.7,141123,,*1C
$GPGGA,221947,2459.6834,N,12117.9368,E,1,08,3.5,10.0,M,0.0,M,,*45
$GPRMC,221948,A,2459.6949,N,12117.9436,E,15.3,81.4,141123,,*13
$GPGGA,221948,2459.6949,N,12117.9436,E,1,08,3.5,10.0,M,0.0,M,,*4D
$GPRMC,221949,A,2459.7008,N,12117.9648,E,17.6,86.3,141123,,*13
$GPGGA,221949,2459.7008,N,12117.9648,E,1,08,3.5,10.0,M,0.0,M,,*4A
$GPRMC,221950,A,2459.7034,N,12117.9617,E,14.8,87.4,141123,,*15
$GPGGA,221950,2459.7034,N,12117.9617,E,1,08,3.5,10.0,M,0.0,M,,*47
$GPRMC,221951,A,2459.7026,N,12117.9671,E,17.1,87.8,141123,,*11
$GPGGA,221951,2459.7026,N,12117.9671,E,1,08,3.5,10.0,M,0.0,M,,*45
$GPRMC,221952,A,2459.6972,N,12117.9675,E,13.6,83.7,141123,,*17
$GPGGA,221952,2459.6972,N,12117.9675,E,1,08,3.5,10.0,M,0.0,M,,*4B
$GPRMC,221953,A,2459.6891,N,12117.9716,E,13.1,90.1,141123,,*1D
$GPGGA,221953,2459.6891,N,12117.9716,E,1,08,3.5,10.0,M,0.0,M,,*42
$GPRMC,221954,A,2459.6918,N,12117.9744,E,13.9,86.8,141123,,*1B
$GPGGA,221954,2459.6918,N,12117.9744,E,1,08,3.5,10.0,M,0.0,M,,*42
$GPRMC,221955,A,2459.6801,N,12117.9806,E,14.9,82.8,141123,,*19
$GPGGA,221955,2459.6801,N,12117.9806,E,1,08,3.5,10.0,M,0.0,M,,*43
$GPRMC,221956,A,2459.6834,N,12117.9684,E,15.3,80.7,141123,,*1E
$GPGGA,221956,2459.6834,N,12117.9684,E,1,08,3.5,10.0,M,0.0,M,,*42
$GPRMC,221957,A,2459.6861,N,12117.9592,E,13.7,84.3,141123,,*19
$GPGGA,221957,2459.6861,N,12117.9592,E,1,08,3.5,10.0,M,0.0,M,,*47
$GPRMC,221958,A,2459.6857,N,12117.9678,E,10.3,81.6,141123,,*13
$GPGGA,221958,2459.6857,N,12117.9678,E,1,08,3.5,10.0,M,0.0,M,,*4A
$GPRMC,221959,A,2459.6837,N,12117.9642,E,12.6,80.4,141123,,*19
$GPGGA,221959,2459.6837,N,12117.9642,E,1,08,3.5,10.0,M,0.0,M,,*44
$GPRMC,222000,A,2459.6861,N,12117.9701,E,12.1,73.4,141123,,*11
$GPGGA,222000,2459.6861,N,12117.9701,E,1,08,3.5,10.0,M,0.0,M,,*47
$GPRMC,222001,A,2459.6814,N,12117.9843,E,14.5,79.6,141123,,*11
$GPGGA,222001,2459.6814,N,12117.9843,E,1,08,3.5,10.0,M,0.0,M,,*4D
$GPRMC,222002,A,2459.6910,N,12117.9988,E,14.4,77.8,141123,,*10
$GPGGA,222002,2459.6910,N,12117.9988,E,1,08,3.5,10.0,M,0.0,M,,*4D
$GPRMC,222003,A,2459.6958,N,12118.0133,E,16.4,85.7,141123,,*13
$GPGGA,222003,2459.6958,N,12118.0133,E,1,08,3.5,10.0,M,0.0,M,,*4E
$GPRMC,222004,A,2459.6958,N,12118.0300,E,15.7,87.5,141123,,*16
$GPGGA,222004,2459.6958,N,12118.0300,E,1,08,3.5,10.0,M,0.0,M,,*4B
$GPRMC,222005,A,2459.6841,N,12118.0323,E,15.7,79.1,141123,,*1A
$GPGGA,222005,2459.6841,N,12118.0323,E,1,08,3.5,10.0,M,0.0,M,,*42
$GPRMC,222006,A,2459.6925,N,12118.0314,E,15.5,78.9,141123,,*15
$GPGGA,222006,2459.6925,N,12118.0314,E,1,08,3.5,10.0,M,0.0,M,,*46
$GPRMC,222007,A,2459.6907,N,12118.0374,E,14.4,80.5,141123,,*19
$GPGGA,222007,2459.6907,N,12118.0374,E,1,08,3.5,10.0,M,0.0,M,,*41
$GPRMC,222008,A,2459.6961,N,12118.0349,E,11.4,86.4,141123,,*1A
$GPGGA,222008,2459.6961,N,12118.0349,E,1,08,3.5,10.0,M,0.0,M,,*40
$GPRMC,222009,A,2459.6921,N,12118.0264,E,8.4,64.5,141123,,*24
$GPGGA,222009,2459.6921,N,12118.0264,E,1,08,3.5,10.0,M,0.0,M,,*4B
$GPRMC,222010,A,2459.6862,N,12118.0211,E,10.7,65.6,141123,,*10
$GPGGA,222010,2459.6862,N,12118.0211,E,1,08,3.5,10.0,M,0.0,M,,*47
$GPRMC,222011,A,2459.6812,N,12118.0195,E,13.0,58.8,141123,,*1D
$GPGGA,222011,2459.6812,N,12118.0195,E,1,08,3.5,10.0,M,0.0,M,,*4E
$GPRMC,222012,A,2459.6769,N,12118.0301,E,13.7,61.1,141123,,*16
$GPGGA,222012,2459.6769,N,12118.0301,E,1,08,3.5,10.0,M,0.0,M,,*41
$GPRMC,222013,A,2459.6839,N,12118.0367,E,8.4,73.9,141123,,*2F
$GPGGA,222013,2459.6839,N,12118.0367,E,1,08,3.5,10.0,M,0.0,M,,*4A
$GPRMC,222014,A,2459.6852,N,12118.0303,E,10.7,69.7,141123,,*18
$GPGGA,222014,2459.6852,N,12118.0303,E,1,08,3.5,10.0,M,0.0,M,,*42
$GPRMC,222015,A,2459.6920,N,12118.0309,E,13.0,75.1,141123,,*18
$GPGGA,222015,2459.6920,N,12118.0309,E,1,08,3.5,10.0,M,0.0,M,,*4D
$GPRMC,222016,A,2459.6908,N,12118.0326,E,15.4,75.8,141123,,*17
$GPGGA,222016,2459.6908,N,12118.0326,E,1,08,3.5,10.0,M,0.0,M,,*49
$GPRMC,222017,A,2459.6938,N,12118.0363,E,8.4,96.5,141123,,*28
$GPGGA,222017,2459.6938,N,12118.0363,E,1,08,3.5,10.0,M,0.0,M,,*4A
$GPRMC,222018,A,2459.6926,N,12118.0344,E,10.7,95.4,141123,,*15
$GPGGA,222018,2459.6926,N,12118.0344,E,1,08,3.5,10.0,M,0.0,M,,*4F
$GPRMC,222019,A,2459.7039,N,12118.0376,E,13.0,94.3,141123,,*11
$GPGGA,222019,2459.7039,N,12118.0376,E,1,08,3.5,10.0,M,0.0,M,,*49
$GPRMC,222020,A,2459.6967,N,12118.0442,E,14.4,92.5,141123,,*1B
$GPGGA,222020,2459.6967,N,12118.0442,E,1,08,3.5,10.0,M,0.0,M,,*40
$GPRMC,222021,A,2459.6994,N,12118.0410,E,10.9,96.0,141123,,*19
$GPGGA,222021,2459.6994,N,12118.0410,E,1,08,3.5,10.0,M,0.0,M,,*4A
$GPRMC,222022,A,2459.7052,N,12118.0467,E,0.0,118.1,141123,,*16
$GPGGA,222022,2459.7052,N,12118.0467,E,1,08,3.5,10.0,M,0.0,M,,*4B
$GPRMC,222023,A,2459.7048,N,12118.0457,E,0.0,123.7,141123,,*11
$GPGGA,222023,2459.7048,N,12118.0457,E,1,08,3.5,10.0,M,0.0,M,,*42
$GPRMC,222024,A,2459.7035,N,12118.0348,E,0.0,121.5,141123,,*15
$GPGGA,222024,2459.7035,N,12118.0348,E,1,08,3.5,10.0,M,0.0,M,,*46
$GPRMC,222025,A,2459.6914,N,12118.0382,E,0.0,114.9,141123,,*13
$GPGGA,222025,2459.6914,N,12118.0382,E,1,08,3.5,10.0,M,0.0,M,,*4A
$GPRMC,222026,A,2459.6887,N,12118.0495,E,0.0,117.6,141123,,*16
$GPGGA,222026,2459.6887,N,12118.0495,E,1,08,3.5,10.0,M,0.0,M,,*43
$GPRMC,222027,A,2459.6893,N,12118.0553,E,0.0,112.6,141123,,*1C
$GPGGA,222027,2459.6893,N,12118.0553,E,1,08,3.5,10.0,M,0.0,M,,*4C
$GPRMC,222028,A,2459.6846,N,12118.0309,E,0.0,114.2,141123,,*10
$GPGGA,222028,2459.6846,N,12118.0309,E,1,08,3.5,10.0,M,0.0,M,,*42
$GPRMC,222029,A,2459.6900,N,12118.0298,E,0.0,119.2,141123,,*16
$GPGGA,222029,2459.6900,N,12118.0298,E,1,08,3.5,10.0,M,0.0,M,,*49
$GPRMC,222030,A,2459.6868,N,12118.0249,E,0.0,116.5,141123,,*15
$GPGGA,222030,2459.6868,N,12118.0249,E,1,08,3.5,10.0,M,0.0,M,,*42
$GPRMC,222031,A,2459.6808,N,12118.0316,E,0.0,120.1,141123,,*18
$GPGGA,222031,2459.6808,N,12118.0316,E,1,08,3.5,10.0,M,0.0,M,,*4E
$GPRMC,222032,A,2459.6824,N,12118.0434,E,8.4,120.9,141123,,*16
$GPGGA,222032,2459.6824,N,12118.0434,E,1,08,3.5,10.0,M,0.0,M,,*44
$GPRMC,222033,A,2459.6877,N,12118.0341,E,10.7,120.1,141123,,*26
$GPGGA,222033,2459.6877,N,12118.0341,E,1,08,3.5,10.0,M,0.0,M,,*46
$GPRMC,222034,A,2459.6757,N,12118.0317,E,9.5,120.2,141123,,*16
$GPGGA,222034,2459.6757,N,12118.0317,E,1,08,3.5,10.0,M,0.0,M,,*4F
$GPRMC,222035,A,2459.6909,N,12118.0430,E,11.9,119.8,141123,,*25
$GPGGA,222035,2459.6909,N,12118.0430,E,1,08,3.5,10.0,M,0.0,M,,*49
$GPRMC,222036,A,2459.6918,N,12118.0486,E,11.4,110.7,141123,,*20
$GPGGA,222036,2459.6918,N,12118.0486,E,1,08,3.5,10.0,M,0.0,M,,*47
$GPRMC,222037,A,2459.6886,N,12118.0554,E,13.7,113.0,141123,,*2C
$GPGGA,222037,2459.6886,N,12118.0554,E,1,08,3.5,10.0,M,0.0,M,,*4E
$GPRMC,222038,A,2459.6790,N,12118.0594,E,16.1,110.0,141123,,*27
$GPGGA,222038,2459.6790,N,12118.0594,E,1,08,3.5,10.0,M,0.0,M,,*45
$GPRMC,222039,A,2459.6844,N,12118.0694,E,18.0,115.0,141123,,*29
$GPGGA,222039,2459.6844,N,12118.0694,E,1,08,3.5,10.0,M,0.0,M,,*41
$GPRMC,222040,A,2459.6730,N,12118.0919,E,18.9,120.6,141123,,*28
$GPGGA,222040,2459.6730,N,12118.0919,E,1,08,3.5,10.0,M,0.0,M,,*49
$GPRMC,222041,A,2459.6708,N,12118.0983,E,17.9,120.0,141123,,*28
$GPGGA,222041,2459.6708,N,12118.0983,E,1,08,3.5,10.0,M,0.0,M,,*40
$GPRMC,222042,A,2459.6743,N,12118.0986,E,19.2,120.1,141123,,*25
$GPGGA,222042,2459.6743,N,12118.0986,E,1,08,3.5,10.0,M,0.0,M,,*49
$GPRMC,222043,A,2459.6757,N,12118.0974,E,15.7,127.2,141123,,*21
$GPGGA,222043,2459.6757,N,12118.0974,E,1,08,3.5,10.0,M,0.0,M,,*40
$GPRMC,222044,A,2459.6754,N,12118.1059,E,12.7,120.7,141123,,*27
$GPGGA,222044,2459.6754,N,12118.1059,E,1,08,3.5,10.0,M,0.0,M,,*43
$GPRMC,222045,A,2459.6680,N,12118.1004,E,15.0,115.7,141123,,*20
$GPGGA,222045,2459.6680,N,12118.1004,E,1,08,3.5,10.0,M,0.0,M,,*42
$GPRMC,222046,A,2459.6636,N,12118.1173,E,17.3,113.0,141123,,*2F
$GPGGA,222046,2459.6636,N,12118.1173,E,1,08,3.5,10.0,M,0.0,M,,*4D
$GPRMC,222047,A,2459.6582,N,12118.1150,E,16.5,117.7,141123,,*27
$GPGGA,222047,2459.6582,N,12118.1150,E,1,08,3.5,10.0,M,0.0,M,,*41
$GPRMC,222048,A,2459.6547,N,12118.1080,E,16.5,118.2,141123,,*27
$GPGGA,222048,2459.6547,N,12118.1080,E,1,08,3.5,10.0,M,0.0,M,,*4B
$GPRMC,222049,A,2459.6459,N,12118.1209,E,13.0,119.6,141123,,*2E
$GPGGA,222049,2459.6459,N,12118.1209,E,1,08,3.5,10.0,M,0.0,M,,*47
$GPRMC,222050,A,2459.6452,N,12118.1158,E,15.4,118.3,141123,,*2C
$GPGGA,222050,2459.6452,N,12118.1158,E,1,08,3.5,10.0,M,0.0,M,,*43
$GPRMC,222051,A,2459.6590,N,12118.1394,E,8.4,138.6,141123,,*1B
$GPGGA,222051,2459.6590,N,12118.1394,E,1,08,3.5,10.0,M,0.0,M,,*4F
$GPRMC,222052,A,2459.6555,N,12118.1402,E,10.7,144.0,141123,,*2E
$GPGGA,222052,2459.6555,N,12118.1402,E,1,08,3.5,10.0,M,0.0,M,,*4D
$GPRMC,222053,A,2459.6572,N,12118.1403,E,13.0,140.8,141123,,*23
$GPGGA,222053,2459.6572,N,12118.1403,E,1,08,3.5,10.0,M,0.0,M,,*48
$GPRMC,222054,A,2459.6460,N,12118.1425,E,12.0,136.5,141123,,*2F
$GPGGA,222054,2459.6460,N,12118.1425,E,1,08,3.5,10.0,M,0.0,M,,*49
$GPRMC,222055,A,2459.6438,N,12118.1567,E,13.7,139.5,141123,,*2D
$GPGGA,222055,2459.6438,N,12118.1567,E,1,08,3.5,10.0,M,0.0,M,,*42
$GPRMC,222056,A,2459.6400,N,12118.1660,E,15.3,146.4,141123,,*2A
$GPGGA,222056,2459.6400,N,12118.1660,E,1,08,3.5,10.0,M,0.0,M,,*4E
$GPRMC,222057,A,2459.6478,N,12118.1664,E,8.4,176.9,141123,,*15
$GPGGA,222057,2459.6478,N,12118.1664,E,1,08,3.5,10.0,M,0.0,M,,*44
$GPRMC,222058,A,2459.6459,N,12118.1724,E,10.7,174.3,141123,,*2E
$GPGGA,222058,2459.6459,N,12118.1724,E,1,08,3.5,10.0,M,0.0,M,,*4D
$GPRMC,222059,A,2459.6431,N,12118.1790,E,13.0,176.1,141123,,*2A
$GPGGA,222059,2459.6431,N,12118.1790,E,1,08,3.5,10.0,M,0.0,M,,*4D
$GPRMC,222100,A,2459.6272,N,12118.1499,E,15.4,179.3,141123,,*23
$GPGGA,222100,2459.6272,N,12118.1499,E,1,08,3.5,10.0,M,0.0,M,,*4B
$GPRMC,222101,A,2459.6326,N,12118.1495,E,15.0,177.8,141123,,*2F
$GPGGA,222101,2459.6326,N,12118.1495,E,1,08,3.5,10.0,M,0.0,M,,*46
$GPRMC,222102,A,2459.6366,N,12118.1417,E,11.5,180.8,141123,,*2B
$GPGGA,222102,2459.6366,N,12118.1417,E,1,08,3.5,10.0,M,0.0,M,,*4B
